header: 
  seq: 0
  stamp: 
    secs: 1627497988
    nsecs: 258155735
  frame_id: "/base_link"
markers: 
  - 
    header: 
      seq: 0
      stamp: 
        secs: 1627497988
        nsecs: 258155735
      frame_id: "/base_link"
    id: 0
    reprojection_error: 0.677525699139
    pose: 
      header: 
        seq: 0
        stamp: 
          secs: 1627497988
          nsecs: 258155735
        frame_id: "/base_link"
      pose: 
        position: 
          x: 2.3208175106
          y: -0.506828754913
          z: 0.123572236249
        orientation: 
          x: 0.0648800922436
          y: -0.846211996738
          z: -0.0205275286288
          w: 0.528483160351
    corners: 
      - 
        x: 938.872619629
        y: 560.807678223
        z: 0.0
      - 
        x: 956.114929199
        y: 483.249053955
        z: 0.0
      - 
        x: 1034.33862305
        y: 493.015686035
        z: 0.0
      - 
        x: 1014.82983398
        y: 569.250610352
        z: 0.0
  - 
    header: 
      seq: 0
      stamp: 
        secs: 1627497988
        nsecs: 258155735
      frame_id: "/base_link"
    id: 1
    reprojection_error: 1.30994737148
    pose: 
      header: 
        seq: 0
        stamp: 
          secs: 1627497988
          nsecs: 258155735
        frame_id: "/base_link"
      pose: 
        position: 
          x: 2.27415838648
          y: -0.540503295818
          z: 0.302038566044
        orientation: 
          x: 0.0561824600704
          y: -0.836414039477
          z: -0.035331097592
          w: 0.544065068984
    corners: 
      - 
        x: 958.767028809
        y: 470.553436279
        z: 0.0
      - 
        x: 976.782409668
        y: 387.2215271
        z: 0.0
      - 
        x: 1057.05969238
        y: 399.030670166
        z: 0.0
      - 
        x: 1037.22412109
        y: 480.742889404
        z: 0.0
  - 
    header: 
      seq: 0
      stamp: 
        secs: 1627497988
        nsecs: 258155735
      frame_id: "/base_link"
    id: 2
    reprojection_error: 2.0966989994
    pose: 
      header: 
        seq: 0
        stamp: 
          secs: 1627497988
          nsecs: 258155735
        frame_id: "/base_link"
      pose: 
        position: 
          x: 2.24206132858
          y: -0.576472572172
          z: 0.487921317921
        orientation: 
          x: 0.0369783323398
          y: -0.816695914918
          z: -0.0632186414258
          w: 0.572401772246
    corners: 
      - 
        x: 979.356811523
        y: 374.245574951
        z: 0.0
      - 
        x: 996.81652832
        y: 285.510437012
        z: 0.0
      - 
        x: 1079.81408691
        y: 298.987792969
        z: 0.0
      - 
        x: 1060.19763184
        y: 385.734832764
        z: 0.0
  - 
    header: 
      seq: 0
      stamp: 
        secs: 1627497988
        nsecs: 258155735
      frame_id: "/base_link"
    id: 3
    reprojection_error: 0.613755702972
    pose: 
      header: 
        seq: 0
        stamp: 
          secs: 1627497988
          nsecs: 258155735
        frame_id: "/base_link"
      pose: 
        position: 
          x: 2.39305274359
          y: -0.730546461609
          z: 0.10471223541
        orientation: 
          x: 0.0774644115694
          y: -0.835819937571
          z: -0.0103282828887
          w: 0.543412940103
    corners: 
      - 
        x: 1033.9666748
        y: 571.167175293
        z: 0.0
      - 
        x: 1053.78540039
        y: 495.562927246
        z: 0.0
      - 
        x: 1127.6751709
        y: 504.683898926
        z: 0.0
      - 
        x: 1106.13989258
        y: 579.434265137
        z: 0.0
  - 
    header: 
      seq: 0
      stamp: 
        secs: 1627497988
        nsecs: 258155735
      frame_id: "/base_link"
    id: 8
    reprojection_error: 1.72580051422
    pose: 
      header: 
        seq: 0
        stamp: 
          secs: 1627497988
          nsecs: 258155735
        frame_id: "/base_link"
      pose: 
        position: 
          x: 2.29244109584
          y: -0.799167830505
          z: 0.468391524297
        orientation: 
          x: 0.073388931983
          y: -0.807576830267
          z: -0.0239192953694
          w: 0.584689315096
    corners: 
      - 
        x: 1080.35681152
        y: 389.115478516
        z: 0.0
      - 
        x: 1100.06896973
        y: 302.431610107
        z: 0.0
      - 
        x: 1178.04345703
        y: 315.803070068
        z: 0.0
      - 
        x: 1156.11254883
        y: 400.286590576
        z: 0.0
  - 
    header: 
      seq: 0
      stamp: 
        secs: 1627497988
        nsecs: 258155735
      frame_id: "/base_link"
    id: 9
    reprojection_error: 1.26636207104
    pose: 
      header: 
        seq: 0
        stamp: 
          secs: 1627497988
          nsecs: 258155735
        frame_id: "/base_link"
      pose: 
        position: 
          x: 2.3431748561
          y: -0.765925038131
          z: 0.284728730742
        orientation: 
          x: 0.0715659940462
          y: -0.827141745996
          z: -0.0182103970106
          w: 0.557120473477
    corners: 
      - 
        x: 1056.77429199
        y: 483.274139404
        z: 0.0
      - 
        x: 1076.87780762
        y: 402.149780273
        z: 0.0
      - 
        x: 1152.83654785
        y: 413.18951416
        z: 0.0
      - 
        x: 1131.10656738
        y: 492.606750488
        z: 0.0
---
header: 
  seq: 1
  stamp: 
    secs: 1627497988
    nsecs: 381107995
  frame_id: "/base_link"
markers: 
  - 
    header: 
      seq: 0
      stamp: 
        secs: 1627497988
        nsecs: 381107995
      frame_id: "/base_link"
    id: 0
    reprojection_error: 0.453868627548
    pose: 
      header: 
        seq: 0
        stamp: 
          secs: 1627497988
          nsecs: 381107995
        frame_id: "/base_link"
      pose: 
        position: 
          x: 2.32046065609
          y: -0.506597417025
          z: 0.123548527519
        orientation: 
          x: 0.0648640881429
          y: -0.846988486137
          z: -0.020625740179
          w: 0.527235936999
    corners: 
      - 
        x: 938.753417969
        y: 560.675964355
        z: 0.0
      - 
        x: 956.053344727
        y: 483.355499268
        z: 0.0
      - 
        x: 1034.29443359
        y: 492.962463379
        z: 0.0
      - 
        x: 1014.7074585
        y: 569.276733398
        z: 0.0
  - 
    header: 
      seq: 0
      stamp: 
        secs: 1627497988
        nsecs: 381107995
      frame_id: "/base_link"
    id: 1
    reprojection_error: 1.30291056633
    pose: 
      header: 
        seq: 0
        stamp: 
          secs: 1627497988
          nsecs: 381107995
        frame_id: "/base_link"
      pose: 
        position: 
          x: 2.27459742432
          y: -0.540570564789
          z: 0.301995878425
        orientation: 
          x: 0.0552677346104
          y: -0.836876136072
          z: -0.0361850600588
          w: 0.543391619197
    corners: 
      - 
        x: 958.80090332
        y: 470.618408203
        z: 0.0
      - 
        x: 976.696960449
        y: 387.291229248
        z: 0.0
      - 
        x: 1057.10314941
        y: 399.152709961
        z: 0.0
      - 
        x: 1037.19689941
        y: 480.768493652
        z: 0.0
  - 
    header: 
      seq: 0
      stamp: 
        secs: 1627497988
        nsecs: 381107995
      frame_id: "/base_link"
    id: 2
    reprojection_error: 2.32487177849
    pose: 
      header: 
        seq: 0
        stamp: 
          secs: 1627497988
          nsecs: 381107995
        frame_id: "/base_link"
      pose: 
        position: 
          x: 2.24121483348
          y: -0.576338058745
          z: 0.487823107704
        orientation: 
          x: 0.0414136428241
          y: -0.81540057506
          z: -0.0595794929268
          w: 0.574331869569
    corners: 
      - 
        x: 979.279663086
        y: 374.176940918
        z: 0.0
      - 
        x: 997.122314453
        y: 285.275512695
        z: 0.0
      - 
        x: 1079.73217773
        y: 299.033691406
        z: 0.0
      - 
        x: 1060.16589355
        y: 385.672790527
        z: 0.0
  - 
    header: 
      seq: 0
      stamp: 
        secs: 1627497988
        nsecs: 381107995
      frame_id: "/base_link"
    id: 3
    reprojection_error: 0.692049860954
    pose: 
      header: 
        seq: 0
        stamp: 
          secs: 1627497988
          nsecs: 381107995
        frame_id: "/base_link"
      pose: 
        position: 
          x: 2.39125926386
          y: -0.7299665923
          z: 0.104639437406
        orientation: 
          x: 0.077109532101
          y: -0.836081381388
          z: -0.010530010565
          w: 0.543057236977
    corners: 
      - 
        x: 1033.8885498
        y: 571.217956543
        z: 0.0
      - 
        x: 1053.78991699
        y: 495.521942139
        z: 0.0
      - 
        x: 1127.70251465
        y: 504.699005127
        z: 0.0
      - 
        x: 1106.22509766
        y: 579.417724609
        z: 0.0
  - 
    header: 
      seq: 0
      stamp: 
        secs: 1627497988
        nsecs: 381107995
      frame_id: "/base_link"
    id: 8
    reprojection_error: 1.92570960522
    pose: 
      header: 
        seq: 0
        stamp: 
          secs: 1627497988
          nsecs: 381107995
        frame_id: "/base_link"
      pose: 
        position: 
          x: 2.29189273328
          y: -0.798903253344
          z: 0.468125370204
        orientation: 
          x: 0.0738325548999
          y: -0.806978774181
          z: -0.0231689766296
          w: 0.585488864437
    corners: 
      - 
        x: 1080.32580566
        y: 389.25
        z: 0.0
      - 
        x: 1100.02380371
        y: 302.415039062
        z: 0.0
      - 
        x: 1177.921875
        y: 315.892578125
        z: 0.0
      - 
        x: 1156.13098145
        y: 400.277374268
        z: 0.0
  - 
    header: 
      seq: 0
      stamp: 
        secs: 1627497988
        nsecs: 381107995
      frame_id: "/base_link"
    id: 9
    reprojection_error: 1.54562497139
    pose: 
      header: 
        seq: 0
        stamp: 
          secs: 1627497988
          nsecs: 381107995
        frame_id: "/base_link"
      pose: 
        position: 
          x: 2.34618637037
          y: -0.766899573187
          z: 0.285104662388
        orientation: 
          x: 0.0722842426059
          y: -0.82600203242
          z: -0.0179965221558
          w: 0.55872332679
    corners: 
      - 
        x: 1056.86206055
        y: 483.31072998
        z: 0.0
      - 
        x: 1076.83911133
        y: 402.096832275
        z: 0.0
      - 
        x: 1152.70495605
        y: 413.326446533
        z: 0.0
      - 
        x: 1130.9987793
        y: 492.570037842
        z: 0.0
---
header: 
  seq: 2
  stamp: 
    secs: 1627497988
    nsecs: 578528362
  frame_id: "/base_link"
markers: 
  - 
    header: 
      seq: 0
      stamp: 
        secs: 1627497988
        nsecs: 578528362
      frame_id: "/base_link"
    id: 0
    reprojection_error: 0.535428822041
    pose: 
      header: 
        seq: 0
        stamp: 
          secs: 1627497988
          nsecs: 578528362
        frame_id: "/base_link"
      pose: 
        position: 
          x: 2.32191938218
          y: -0.506948761708
          z: 0.123621981062
        orientation: 
          x: 0.0651174513175
          y: -0.847129626548
          z: -0.0207371109938
          w: 0.52697351507
    corners: 
      - 
        x: 938.804321289
        y: 560.641174316
        z: 0.0
      - 
        x: 956.062683105
        y: 483.367584229
        z: 0.0
      - 
        x: 1034.31311035
        y: 493.035888672
        z: 0.0
      - 
        x: 1014.6116333
        y: 569.251220703
        z: 0.0
  - 
    header: 
      seq: 0
      stamp: 
        secs: 1627497988
        nsecs: 578528362
      frame_id: "/base_link"
    id: 1
    reprojection_error: 1.45285582542
    pose: 
      header: 
        seq: 0
        stamp: 
          secs: 1627497988
          nsecs: 578528362
        frame_id: "/base_link"
      pose: 
        position: 
          x: 2.27577561193
          y: -0.54092565977
          z: 0.302175856443
        orientation: 
          x: 0.0552709887802
          y: -0.836461173604
          z: -0.0360417719272
          w: 0.544039349247
    corners: 
      - 
        x: 958.883972168
        y: 470.643432617
        z: 0.0
      - 
        x: 976.694702148
        y: 387.246826172
        z: 0.0
      - 
        x: 1057.08251953
        y: 399.173583984
        z: 0.0
      - 
        x: 1037.21411133
        y: 480.701538086
        z: 0.0
  - 
    header: 
      seq: 0
      stamp: 
        secs: 1627497988
        nsecs: 578528362
      frame_id: "/base_link"
    id: 2
    reprojection_error: 1.96449124813
    pose: 
      header: 
        seq: 0
        stamp: 
          secs: 1627497988
          nsecs: 578528362
        frame_id: "/base_link"
      pose: 
        position: 
          x: 2.23921636472
          y: -0.575735281435
          z: 0.487403100484
        orientation: 
          x: 0.0439297702278
          y: -0.815409800083
          z: -0.0557204357598
          w: 0.574519160913
    corners: 
      - 
        x: 979.331115723
        y: 374.21395874
        z: 0.0
      - 
        x: 997.101501465
        y: 285.320159912
        z: 0.0
      - 
        x: 1079.6574707
        y: 298.821685791
        z: 0.0
      - 
        x: 1060.04821777
        y: 385.722930908
        z: 0.0
  - 
    header: 
      seq: 0
      stamp: 
        secs: 1627497988
        nsecs: 578528362
      frame_id: "/base_link"
    id: 3
    reprojection_error: 0.559589266777
    pose: 
      header: 
        seq: 0
        stamp: 
          secs: 1627497988
          nsecs: 578528362
        frame_id: "/base_link"
      pose: 
        position: 
          x: 2.39336617966
          y: -0.7307299913
          z: 0.104831298525
        orientation: 
          x: 0.0775379497204
          y: -0.83598001177
          z: -0.0106853273773
          w: 0.543149252096
    corners: 
      - 
        x: 1033.97814941
        y: 571.060119629
        z: 0.0
      - 
        x: 1053.91479492
        y: 495.492156982
        z: 0.0
      - 
        x: 1127.73376465
        y: 504.65737915
        z: 0.0
      - 
        x: 1106.20776367
        y: 579.378723145
        z: 0.0
  - 
    header: 
      seq: 0
      stamp: 
        secs: 1627497988
        nsecs: 578528362
      frame_id: "/base_link"
    id: 8
    reprojection_error: 1.97547912598
    pose: 
      header: 
        seq: 0
        stamp: 
          secs: 1627497988
          nsecs: 578528362
        frame_id: "/base_link"
      pose: 
        position: 
          x: 2.29018237637
          y: -0.798319087049
          z: 0.46773633182
        orientation: 
          x: 0.0760982762924
          y: -0.806919711517
          z: -0.0217501047567
          w: 0.585334574797
    corners: 
      - 
        x: 1080.34655762
        y: 389.234466553
        z: 0.0
      - 
        x: 1100.18603516
        y: 302.309295654
        z: 0.0
      - 
        x: 1177.96398926
        y: 315.971313477
        z: 0.0
      - 
        x: 1155.98596191
        y: 400.354827881
        z: 0.0
  - 
    header: 
      seq: 0
      stamp: 
        secs: 1627497988
        nsecs: 578528362
      frame_id: "/base_link"
    id: 9
    reprojection_error: 1.28534424305
    pose: 
      header: 
        seq: 0
        stamp: 
          secs: 1627497988
          nsecs: 578528362
        frame_id: "/base_link"
      pose: 
        position: 
          x: 2.34603435236
          y: -0.766860826992
          z: 0.285094225823
        orientation: 
          x: 0.0720021967775
          y: -0.826261489046
          z: -0.0188197388287
          w: 0.558348862996
    corners: 
      - 
        x: 1056.84326172
        y: 483.199981689
        z: 0.0
      - 
        x: 1076.86376953
        y: 402.103424072
        z: 0.0
      - 
        x: 1152.78588867
        y: 413.295806885
        z: 0.0
      - 
        x: 1130.98937988
        y: 492.633239746
        z: 0.0
---
header: 
  seq: 3
  stamp: 
    secs: 1627497988
    nsecs: 776893806
  frame_id: "/base_link"
markers: 
  - 
    header: 
      seq: 0
      stamp: 
        secs: 1627497988
        nsecs: 776893806
      frame_id: "/base_link"
    id: 0
    reprojection_error: 0.434584766626
    pose: 
      header: 
        seq: 0
        stamp: 
          secs: 1627497988
          nsecs: 776893806
        frame_id: "/base_link"
      pose: 
        position: 
          x: 2.32384004556
          y: -0.507450918248
          z: 0.123762943648
        orientation: 
          x: 0.0657581643114
          y: -0.846569996734
          z: -0.0202793615214
          w: 0.527810431834
    corners: 
      - 
        x: 938.884094238
        y: 560.635681152
        z: 0.0
      - 
        x: 956.178649902
        y: 483.347167969
        z: 0.0
      - 
        x: 1034.28356934
        y: 493.030700684
        z: 0.0
      - 
        x: 1014.62854004
        y: 569.222595215
        z: 0.0
  - 
    header: 
      seq: 0
      stamp: 
        secs: 1627497988
        nsecs: 776893806
      frame_id: "/base_link"
    id: 1
    reprojection_error: 1.22863554955
    pose: 
      header: 
        seq: 0
        stamp: 
          secs: 1627497988
          nsecs: 776893806
        frame_id: "/base_link"
      pose: 
        position: 
          x: 2.27573634997
          y: -0.540880260196
          z: 0.30230784202
        orientation: 
          x: 0.0562603946819
          y: -0.835147725669
          z: -0.0341163416327
          w: 0.546076111484
    corners: 
      - 
        x: 958.89654541
        y: 470.644134521
        z: 0.0
      - 
        x: 976.72869873
        y: 387.247161865
        z: 0.0
      - 
        x: 1056.91674805
        y: 398.900970459
        z: 0.0
      - 
        x: 1037.29650879
        y: 480.686767578
        z: 0.0
  - 
    header: 
      seq: 0
      stamp: 
        secs: 1627497988
        nsecs: 776893806
      frame_id: "/base_link"
    id: 2
    reprojection_error: 1.91093873978
    pose: 
      header: 
        seq: 0
        stamp: 
          secs: 1627497988
          nsecs: 776893806
        frame_id: "/base_link"
      pose: 
        position: 
          x: 2.23902290069
          y: -0.575723764759
          z: 0.487385767746
        orientation: 
          x: 0.0446132622947
          y: -0.815175015218
          z: -0.0562326612068
          w: 0.574749718753
    corners: 
      - 
        x: 979.296081543
        y: 374.150238037
        z: 0.0
      - 
        x: 997.217163086
        y: 285.278594971
        z: 0.0
      - 
        x: 1079.73974609
        y: 298.902313232
        z: 0.0
      - 
        x: 1059.99829102
        y: 385.817321777
        z: 0.0
  - 
    header: 
      seq: 0
      stamp: 
        secs: 1627497988
        nsecs: 776893806
      frame_id: "/base_link"
    id: 3
    reprojection_error: 0.573402166367
    pose: 
      header: 
        seq: 0
        stamp: 
          secs: 1627497988
          nsecs: 776893806
        frame_id: "/base_link"
      pose: 
        position: 
          x: 2.3953882926
          y: -0.731356171345
          z: 0.104905125815
        orientation: 
          x: 0.0764345570159
          y: -0.836130116117
          z: -0.0115310675843
          w: 0.543057291542
    corners: 
      - 
        x: 1034.00219727
        y: 571.027770996
        z: 0.0
      - 
        x: 1053.81982422
        y: 495.560760498
        z: 0.0
      - 
        x: 1127.70751953
        y: 504.696258545
        z: 0.0
      - 
        x: 1106.21191406
        y: 579.374084473
        z: 0.0
  - 
    header: 
      seq: 0
      stamp: 
        secs: 1627497988
        nsecs: 776893806
      frame_id: "/base_link"
    id: 8
    reprojection_error: 1.60073065758
    pose: 
      header: 
        seq: 0
        stamp: 
          secs: 1627497988
          nsecs: 776893806
        frame_id: "/base_link"
      pose: 
        position: 
          x: 2.29125595254
          y: -0.798670866097
          z: 0.4679880853
        orientation: 
          x: 0.0754565845099
          y: -0.807018103569
          z: -0.0203529212777
          w: 0.585332250061
    corners: 
      - 
        x: 1080.40844727
        y: 389.267486572
        z: 0.0
      - 
        x: 1100.11499023
        y: 302.523956299
        z: 0.0
      - 
        x: 1177.77685547
        y: 315.741210938
        z: 0.0
      - 
        x: 1156.07763672
        y: 400.313323975
        z: 0.0
  - 
    header: 
      seq: 0
      stamp: 
        secs: 1627497988
        nsecs: 776893806
      frame_id: "/base_link"
    id: 9
    reprojection_error: 1.38851702213
    pose: 
      header: 
        seq: 0
        stamp: 
          secs: 1627497988
          nsecs: 776893806
        frame_id: "/base_link"
      pose: 
        position: 
          x: 2.34741685335
          y: -0.767419870377
          z: 0.285337945662
        orientation: 
          x: 0.0714608642604
          y: -0.825965973638
          z: -0.0190253938958
          w: 0.558848449634
    corners: 
      - 
        x: 1056.88330078
        y: 483.184906006
        z: 0.0
      - 
        x: 1076.88793945
        y: 402.089569092
        z: 0.0
      - 
        x: 1152.73901367
        y: 413.268218994
        z: 0.0
      - 
        x: 1131.10791016
        y: 492.556121826
        z: 0.0
---
header: 
  seq: 4
  stamp: 
    secs: 1627497988
    nsecs: 912822044
  frame_id: "/base_link"
markers: 
  - 
    header: 
      seq: 0
      stamp: 
        secs: 1627497988
        nsecs: 912822044
      frame_id: "/base_link"
    id: 0
    reprojection_error: 0.493892759085
    pose: 
      header: 
        seq: 0
        stamp: 
          secs: 1627497988
          nsecs: 912822044
        frame_id: "/base_link"
      pose: 
        position: 
          x: 2.32340289193
          y: -0.507361868247
          z: 0.12367398755
        orientation: 
          x: 0.0647335105321
          y: -0.847118387641
          z: -0.0211050272978
          w: 0.527024276251
    corners: 
      - 
        x: 938.897949219
        y: 560.669677734
        z: 0.0
      - 
        x: 956.129455566
        y: 483.390960693
        z: 0.0
      - 
        x: 1034.34680176
        y: 493.119110107
        z: 0.0
      - 
        x: 1014.68341064
        y: 569.231628418
        z: 0.0
  - 
    header: 
      seq: 0
      stamp: 
        secs: 1627497988
        nsecs: 912822044
      frame_id: "/base_link"
    id: 1
    reprojection_error: 1.22739386559
    pose: 
      header: 
        seq: 0
        stamp: 
          secs: 1627497988
          nsecs: 912822044
        frame_id: "/base_link"
      pose: 
        position: 
          x: 2.27616072891
          y: -0.541089377584
          z: 0.302251553945
        orientation: 
          x: 0.0553372117444
          y: -0.836407645205
          z: -0.0359105402896
          w: 0.54412358627
    corners: 
      - 
        x: 958.993896484
        y: 470.615112305
        z: 0.0
      - 
        x: 976.712280273
        y: 387.276916504
        z: 0.0
      - 
        x: 1057.15246582
        y: 399.128631592
        z: 0.0
      - 
        x: 1037.203125
        y: 480.72164917
        z: 0.0
  - 
    header: 
      seq: 0
      stamp: 
        secs: 1627497988
        nsecs: 912822044
      frame_id: "/base_link"
    id: 2
    reprojection_error: 1.96853983402
    pose: 
      header: 
        seq: 0
        stamp: 
          secs: 1627497988
          nsecs: 912822044
        frame_id: "/base_link"
      pose: 
        position: 
          x: 2.24301306045
          y: -0.576794346615
          z: 0.488233126365
        orientation: 
          x: 0.0399275919733
          y: -0.814974506163
          z: -0.0610293435705
          w: 0.57488934668
    corners: 
      - 
        x: 979.344482422
        y: 374.112365723
        z: 0.0
      - 
        x: 997.065673828
        y: 285.406158447
        z: 0.0
      - 
        x: 1079.69921875
        y: 298.954406738
        z: 0.0
      - 
        x: 1060.18835449
        y: 385.724273682
        z: 0.0
  - 
    header: 
      seq: 0
      stamp: 
        secs: 1627497988
        nsecs: 912822044
      frame_id: "/base_link"
    id: 3
    reprojection_error: 0.753462910652
    pose: 
      header: 
        seq: 0
        stamp: 
          secs: 1627497988
          nsecs: 912822044
        frame_id: "/base_link"
      pose: 
        position: 
          x: 2.39734082701
          y: -0.73196536506
          z: 0.10502306384
        orientation: 
          x: 0.0763699929387
          y: -0.836178940511
          z: -0.0123380915826
          w: 0.542973457106
    corners: 
      - 
        x: 1033.9473877
        y: 570.900024414
        z: 0.0
      - 
        x: 1053.88342285
        y: 495.569641113
        z: 0.0
      - 
        x: 1127.66650391
        y: 504.739318848
        z: 0.0
      - 
        x: 1106.18786621
        y: 579.389160156
        z: 0.0
  - 
    header: 
      seq: 0
      stamp: 
        secs: 1627497988
        nsecs: 912822044
      frame_id: "/base_link"
    id: 8
    reprojection_error: 2.05459713936
    pose: 
      header: 
        seq: 0
        stamp: 
          secs: 1627497988
          nsecs: 912822044
        frame_id: "/base_link"
      pose: 
        position: 
          x: 2.29684467781
          y: -0.800780316152
          z: 0.469100295332
        orientation: 
          x: 0.0727411770065
          y: -0.806745958667
          z: -0.0256196164698
          w: 0.585844104344
    corners: 
      - 
        x: 1080.39855957
        y: 389.163360596
        z: 0.0
      - 
        x: 1100.04370117
        y: 302.502532959
        z: 0.0
      - 
        x: 1177.98425293
        y: 316.135986328
        z: 0.0
      - 
        x: 1156.10241699
        y: 400.277404785
        z: 0.0
  - 
    header: 
      seq: 0
      stamp: 
        secs: 1627497988
        nsecs: 912822044
      frame_id: "/base_link"
    id: 9
    reprojection_error: 1.20618760586
    pose: 
      header: 
        seq: 0
        stamp: 
          secs: 1627497988
          nsecs: 912822044
        frame_id: "/base_link"
      pose: 
        position: 
          x: 2.34726881747
          y: -0.767269102201
          z: 0.285294583184
        orientation: 
          x: 0.0715100534141
          y: -0.826163924783
          z: -0.0183481640687
          w: 0.55857213189
    corners: 
      - 
        x: 1056.84057617
        y: 483.179534912
        z: 0.0
      - 
        x: 1076.83642578
        y: 402.216308594
        z: 0.0
      - 
        x: 1152.64904785
        y: 413.170166016
        z: 0.0
      - 
        x: 1131.06091309
        y: 492.602111816
        z: 0.0
---
header: 
  seq: 5
  stamp: 
    secs: 1627497989
    nsecs: 117846700
  frame_id: "/base_link"
markers: 
  - 
    header: 
      seq: 0
      stamp: 
        secs: 1627497989
        nsecs: 117846700
      frame_id: "/base_link"
    id: 0
    reprojection_error: 0.584719657898
    pose: 
      header: 
        seq: 0
        stamp: 
          secs: 1627497989
          nsecs: 117846700
        frame_id: "/base_link"
      pose: 
        position: 
          x: 2.32378474535
          y: -0.507414476373
          z: 0.123701775793
        orientation: 
          x: 0.0653945674491
          y: -0.8468066681
          z: -0.0205115328018
          w: 0.527466865719
    corners: 
      - 
        x: 938.890930176
        y: 560.703186035
        z: 0.0
      - 
        x: 956.134155273
        y: 483.372802734
        z: 0.0
      - 
        x: 1034.29821777
        y: 493.119689941
        z: 0.0
      - 
        x: 1014.625
        y: 569.21887207
        z: 0.0
  - 
    header: 
      seq: 0
      stamp: 
        secs: 1627497989
        nsecs: 117846700
      frame_id: "/base_link"
    id: 1
    reprojection_error: 1.08673501015
    pose: 
      header: 
        seq: 0
        stamp: 
          secs: 1627497989
          nsecs: 117846700
        frame_id: "/base_link"
      pose: 
        position: 
          x: 2.27420135771
          y: -0.540562205615
          z: 0.302061094462
        orientation: 
          x: 0.0565157773207
          y: -0.836270755671
          z: -0.0339667046276
          w: 0.544337627856
    corners: 
      - 
        x: 958.928894043
        y: 470.603393555
        z: 0.0
      - 
        x: 976.713989258
        y: 387.278442383
        z: 0.0
      - 
        x: 1057.07678223
        y: 398.903320312
        z: 0.0
      - 
        x: 1037.19384766
        y: 480.707061768
        z: 0.0
  - 
    header: 
      seq: 0
      stamp: 
        secs: 1627497989
        nsecs: 117846700
      frame_id: "/base_link"
    id: 2
    reprojection_error: 2.09247493744
    pose: 
      header: 
        seq: 0
        stamp: 
          secs: 1627497989
          nsecs: 117846700
        frame_id: "/base_link"
      pose: 
        position: 
          x: 2.2403802534
          y: -0.576113089531
          z: 0.487720838097
        orientation: 
          x: 0.0416219789095
          y: -0.81593711911
          z: -0.0580369948274
          w: 0.573712415555
    corners: 
      - 
        x: 979.309020996
        y: 374.186828613
        z: 0.0
      - 
        x: 997.123474121
        y: 285.322479248
        z: 0.0
      - 
        x: 1079.68933105
        y: 298.829925537
        z: 0.0
      - 
        x: 1060.22680664
        y: 385.611785889
        z: 0.0
  - 
    header: 
      seq: 0
      stamp: 
        secs: 1627497989
        nsecs: 117846700
      frame_id: "/base_link"
    id: 3
    reprojection_error: 0.514576792717
    pose: 
      header: 
        seq: 0
        stamp: 
          secs: 1627497989
          nsecs: 117846700
        frame_id: "/base_link"
      pose: 
        position: 
          x: 2.39613407629
          y: -0.731634848846
          z: 0.104923767898
        orientation: 
          x: 0.0772240079294
          y: -0.835798139348
          z: -0.0109445826321
          w: 0.543468618204
    corners: 
      - 
        x: 1034.05688477
        y: 571.060058594
        z: 0.0
      - 
        x: 1053.89428711
        y: 495.545196533
        z: 0.0
      - 
        x: 1127.68774414
        y: 504.726226807
        z: 0.0
      - 
        x: 1106.18676758
        y: 579.360351562
        z: 0.0
  - 
    header: 
      seq: 0
      stamp: 
        secs: 1627497989
        nsecs: 117846700
      frame_id: "/base_link"
    id: 8
    reprojection_error: 1.639564991
    pose: 
      header: 
        seq: 0
        stamp: 
          secs: 1627497989
          nsecs: 117846700
        frame_id: "/base_link"
      pose: 
        position: 
          x: 2.29045475233
          y: -0.798474427347
          z: 0.467823530778
        orientation: 
          x: 0.0758076301019
          y: -0.807521981574
          z: -0.0206314008984
          w: 0.584581728923
    corners: 
      - 
        x: 1080.39831543
        y: 389.246429443
        z: 0.0
      - 
        x: 1100.2376709
        y: 302.442596436
        z: 0.0
      - 
        x: 1177.90759277
        y: 315.795959473
        z: 0.0
      - 
        x: 1156.07995605
        y: 400.312011719
        z: 0.0
  - 
    header: 
      seq: 0
      stamp: 
        secs: 1627497989
        nsecs: 117846700
      frame_id: "/base_link"
    id: 9
    reprojection_error: 1.18944275379
    pose: 
      header: 
        seq: 0
        stamp: 
          secs: 1627497989
          nsecs: 117846700
        frame_id: "/base_link"
      pose: 
        position: 
          x: 2.3459163824
          y: -0.766794876869
          z: 0.285243048915
        orientation: 
          x: 0.0736052639807
          y: -0.825207769511
          z: -0.0167792125559
          w: 0.559761431575
    corners: 
      - 
        x: 1056.85913086
        y: 483.13470459
        z: 0.0
      - 
        x: 1076.94348145
        y: 402.053619385
        z: 0.0
      - 
        x: 1152.5847168
        y: 413.074584961
        z: 0.0
      - 
        x: 1130.98803711
        y: 492.594940186
        z: 0.0
---
header: 
  seq: 6
  stamp: 
    secs: 1627497989
    nsecs: 323427441
  frame_id: "/base_link"
markers: 
  - 
    header: 
      seq: 0
      stamp: 
        secs: 1627497989
        nsecs: 323427441
      frame_id: "/base_link"
    id: 0
    reprojection_error: 0.489424616098
    pose: 
      header: 
        seq: 0
        stamp: 
          secs: 1627497989
          nsecs: 323427441
        frame_id: "/base_link"
      pose: 
        position: 
          x: 2.3242717413
          y: -0.507620735552
          z: 0.12374380213
        orientation: 
          x: 0.0648537863527
          y: -0.84678637913
          z: -0.0210242165902
          w: 0.527546013948
    corners: 
      - 
        x: 938.949279785
        y: 560.655151367
        z: 0.0
      - 
        x: 956.157470703
        y: 483.365142822
        z: 0.0
      - 
        x: 1034.33886719
        y: 493.097229004
        z: 0.0
      - 
        x: 1014.69464111
        y: 569.21862793
        z: 0.0
  - 
    header: 
      seq: 0
      stamp: 
        secs: 1627497989
        nsecs: 323427441
      frame_id: "/base_link"
    id: 1
    reprojection_error: 1.33367860317
    pose: 
      header: 
        seq: 0
        stamp: 
          secs: 1627497989
          nsecs: 323427441
        frame_id: "/base_link"
      pose: 
        position: 
          x: 2.27639140145
          y: -0.541124716105
          z: 0.302268874434
        orientation: 
          x: 0.0553494470957
          y: -0.836672339673
          z: -0.036315141415
          w: 0.543688371437
    corners: 
      - 
        x: 958.960083008
        y: 470.61138916
        z: 0.0
      - 
        x: 976.746704102
        y: 387.253723145
        z: 0.0
      - 
        x: 1057.16894531
        y: 399.220397949
        z: 0.0
      - 
        x: 1037.18530273
        y: 480.707580566
        z: 0.0
  - 
    header: 
      seq: 0
      stamp: 
        secs: 1627497989
        nsecs: 323427441
      frame_id: "/base_link"
    id: 2
    reprojection_error: 2.05823278427
    pose: 
      header: 
        seq: 0
        stamp: 
          secs: 1627497989
          nsecs: 323427441
        frame_id: "/base_link"
      pose: 
        position: 
          x: 2.24038810018
          y: -0.576028218617
          z: 0.487758093579
        orientation: 
          x: 0.0403382328519
          y: -0.815200113734
          z: -0.0603617115101
          w: 0.574611229721
    corners: 
      - 
        x: 979.291503906
        y: 374.145507812
        z: 0.0
      - 
        x: 996.959228516
        y: 285.324005127
        z: 0.0
      - 
        x: 1079.75134277
        y: 298.87109375
        z: 0.0
      - 
        x: 1060.12890625
        y: 385.738677979
        z: 0.0
  - 
    header: 
      seq: 0
      stamp: 
        secs: 1627497989
        nsecs: 323427441
      frame_id: "/base_link"
    id: 3
    reprojection_error: 0.563221871853
    pose: 
      header: 
        seq: 0
        stamp: 
          secs: 1627497989
          nsecs: 323427441
        frame_id: "/base_link"
      pose: 
        position: 
          x: 2.39628004214
          y: -0.731622628514
          z: 0.104946642082
        orientation: 
          x: 0.0766787426068
          y: -0.83624679771
          z: -0.0119450422448
          w: 0.542834210157
    corners: 
      - 
        x: 1033.96826172
        y: 570.98059082
        z: 0.0
      - 
        x: 1053.87915039
        y: 495.528930664
        z: 0.0
      - 
        x: 1127.70800781
        y: 504.777069092
        z: 0.0
      - 
        x: 1106.17150879
        y: 579.358337402
        z: 0.0
  - 
    header: 
      seq: 0
      stamp: 
        secs: 1627497989
        nsecs: 323427441
      frame_id: "/base_link"
    id: 8
    reprojection_error: 1.62860703468
    pose: 
      header: 
        seq: 0
        stamp: 
          secs: 1627497989
          nsecs: 323427441
        frame_id: "/base_link"
      pose: 
        position: 
          x: 2.29000635442
          y: -0.798327755202
          z: 0.467804330144
        orientation: 
          x: 0.0768616828856
          y: -0.807359908653
          z: -0.01919957346
          w: 0.5847167143
    corners: 
      - 
        x: 1080.4552002
        y: 389.224822998
        z: 0.0
      - 
        x: 1100.2833252
        y: 302.397705078
        z: 0.0
      - 
        x: 1177.8482666
        y: 315.723815918
        z: 0.0
      - 
        x: 1156.03808594
        y: 400.267089844
        z: 0.0
  - 
    header: 
      seq: 0
      stamp: 
        secs: 1627497989
        nsecs: 323427441
      frame_id: "/base_link"
    id: 9
    reprojection_error: 1.27871406078
    pose: 
      header: 
        seq: 0
        stamp: 
          secs: 1627497989
          nsecs: 323427441
        frame_id: "/base_link"
      pose: 
        position: 
          x: 2.3486588835
          y: -0.767744876126
          z: 0.28544098358
        orientation: 
          x: 0.0715479857198
          y: -0.826008026362
          z: -0.0193213898443
          w: 0.558764986394
    corners: 
      - 
        x: 1056.83374023
        y: 483.133605957
        z: 0.0
      - 
        x: 1076.86621094
        y: 402.177734375
        z: 0.0
      - 
        x: 1152.67895508
        y: 413.304840088
        z: 0.0
      - 
        x: 1131.00720215
        y: 492.62979126
        z: 0.0
---
header: 
  seq: 7
  stamp: 
    secs: 1627497989
    nsecs: 461158968
  frame_id: "/base_link"
markers: 
  - 
    header: 
      seq: 0
      stamp: 
        secs: 1627497989
        nsecs: 461158968
      frame_id: "/base_link"
    id: 0
    reprojection_error: 0.54226398468
    pose: 
      header: 
        seq: 0
        stamp: 
          secs: 1627497989
          nsecs: 461158968
        frame_id: "/base_link"
      pose: 
        position: 
          x: 2.32504875192
          y: -0.507787905982
          z: 0.123788210699
        orientation: 
          x: 0.0650890332964
          y: -0.84673471309
          z: -0.0208724415976
          w: 0.527605993688
    corners: 
      - 
        x: 938.955627441
        y: 560.662414551
        z: 0.0
      - 
        x: 956.180541992
        y: 483.374145508
        z: 0.0
      - 
        x: 1034.31396484
        y: 493.128417969
        z: 0.0
      - 
        x: 1014.67071533
        y: 569.201904297
        z: 0.0
  - 
    header: 
      seq: 0
      stamp: 
        secs: 1627497989
        nsecs: 461158968
      frame_id: "/base_link"
    id: 1
    reprojection_error: 1.30426514149
    pose: 
      header: 
        seq: 0
        stamp: 
          secs: 1627497989
          nsecs: 461158968
        frame_id: "/base_link"
      pose: 
        position: 
          x: 2.27488853372
          y: -0.540771549253
          z: 0.302106044586
        orientation: 
          x: 0.0560832787106
          y: -0.836953384673
          z: -0.0357200928171
          w: 0.543219819872
    corners: 
      - 
        x: 958.8828125
        y: 470.572601318
        z: 0.0
      - 
        x: 976.82611084
        y: 387.212463379
        z: 0.0
      - 
        x: 1057.1895752
        y: 399.163787842
        z: 0.0
      - 
        x: 1037.1965332
        y: 480.699554443
        z: 0.0
  - 
    header: 
      seq: 0
      stamp: 
        secs: 1627497989
        nsecs: 461158968
      frame_id: "/base_link"
    id: 2
    reprojection_error: 2.01536369324
    pose: 
      header: 
        seq: 0
        stamp: 
          secs: 1627497989
          nsecs: 461158968
        frame_id: "/base_link"
      pose: 
        position: 
          x: 2.24274478377
          y: -0.57666988654
          z: 0.48826712899
        orientation: 
          x: 0.0388093491978
          y: -0.815998255551
          z: -0.0618870955937
          w: 0.573420150283
    corners: 
      - 
        x: 979.316467285
        y: 374.09954834
        z: 0.0
      - 
        x: 996.965332031
        y: 285.425445557
        z: 0.0
      - 
        x: 1079.74182129
        y: 298.915527344
        z: 0.0
      - 
        x: 1060.14562988
        y: 385.688964844
        z: 0.0
  - 
    header: 
      seq: 0
      stamp: 
        secs: 1627497989
        nsecs: 461158968
      frame_id: "/base_link"
    id: 3
    reprojection_error: 0.602451860905
    pose: 
      header: 
        seq: 0
        stamp: 
          secs: 1627497989
          nsecs: 461158968
        frame_id: "/base_link"
      pose: 
        position: 
          x: 2.39629658853
          y: -0.731597651417
          z: 0.104988749023
        orientation: 
          x: 0.0768645796798
          y: -0.835868574166
          z: -0.0116301485204
          w: 0.543397002898
    corners: 
      - 
        x: 1033.97546387
        y: 570.950500488
        z: 0.0
      - 
        x: 1053.87207031
        y: 495.516662598
        z: 0.0
      - 
        x: 1127.65844727
        y: 504.682922363
        z: 0.0
      - 
        x: 1106.17858887
        y: 579.371276855
        z: 0.0
  - 
    header: 
      seq: 0
      stamp: 
        secs: 1627497989
        nsecs: 461158968
      frame_id: "/base_link"
    id: 8
    reprojection_error: 1.66780865192
    pose: 
      header: 
        seq: 0
        stamp: 
          secs: 1627497989
          nsecs: 461158968
        frame_id: "/base_link"
      pose: 
        position: 
          x: 2.29257971508
          y: -0.799268069405
          z: 0.46838819998
        orientation: 
          x: 0.0743634358348
          y: -0.807742652226
          z: -0.0213168283174
          w: 0.584437746913
    corners: 
      - 
        x: 1080.42346191
        y: 389.210357666
        z: 0.0
      - 
        x: 1100.17651367
        y: 302.467437744
        z: 0.0
      - 
        x: 1177.86474609
        y: 315.715087891
        z: 0.0
      - 
        x: 1156.1895752
        y: 400.14352417
        z: 0.0
  - 
    header: 
      seq: 0
      stamp: 
        secs: 1627497989
        nsecs: 461158968
      frame_id: "/base_link"
    id: 9
    reprojection_error: 1.36041259766
    pose: 
      header: 
        seq: 0
        stamp: 
          secs: 1627497989
          nsecs: 461158968
        frame_id: "/base_link"
      pose: 
        position: 
          x: 2.34680097916
          y: -0.767169251041
          z: 0.285304131088
        orientation: 
          x: 0.0721557600122
          y: -0.825684879829
          z: -0.0186437243878
          w: 0.559187300517
    corners: 
      - 
        x: 1056.82592773
        y: 483.146636963
        z: 0.0
      - 
        x: 1076.92175293
        y: 402.067352295
        z: 0.0
      - 
        x: 1152.68920898
        y: 413.224914551
        z: 0.0
      - 
        x: 1131.06945801
        y: 492.598937988
        z: 0.0
---
header: 
  seq: 8
  stamp: 
    secs: 1627497989
    nsecs: 663565585
  frame_id: "/base_link"
markers: 
  - 
    header: 
      seq: 0
      stamp: 
        secs: 1627497989
        nsecs: 663565585
      frame_id: "/base_link"
    id: 0
    reprojection_error: 0.499404430389
    pose: 
      header: 
        seq: 0
        stamp: 
          secs: 1627497989
          nsecs: 663565585
        frame_id: "/base_link"
      pose: 
        position: 
          x: 2.32376611955
          y: -0.507403517732
          z: 0.123694308814
        orientation: 
          x: 0.0650241211619
          y: -0.846969322327
          z: -0.0208886122349
          w: 0.527236660887
    corners: 
      - 
        x: 938.86517334
        y: 560.646362305
        z: 0.0
      - 
        x: 956.113220215
        y: 483.389068604
        z: 0.0
      - 
        x: 1034.2902832
        y: 493.093353271
        z: 0.0
      - 
        x: 1014.63153076
        y: 569.23223877
        z: 0.0
  - 
    header: 
      seq: 0
      stamp: 
        secs: 1627497989
        nsecs: 663565585
      frame_id: "/base_link"
    id: 1
    reprojection_error: 1.28857600689
    pose: 
      header: 
        seq: 0
        stamp: 
          secs: 1627497989
          nsecs: 663565585
        frame_id: "/base_link"
      pose: 
        position: 
          x: 2.27603988493
          y: -0.541046329009
          z: 0.302183883901
        orientation: 
          x: 0.0554419644826
          y: -0.836334866833
          z: -0.0356136864123
          w: 0.54424428746
    corners: 
      - 
        x: 958.977172852
        y: 470.668884277
        z: 0.0
      - 
        x: 976.703674316
        y: 387.307434082
        z: 0.0
      - 
        x: 1057.11987305
        y: 399.147094727
        z: 0.0
      - 
        x: 1037.2121582
        y: 480.73550415
        z: 0.0
  - 
    header: 
      seq: 0
      stamp: 
        secs: 1627497989
        nsecs: 663565585
      frame_id: "/base_link"
    id: 2
    reprojection_error: 1.93234145641
    pose: 
      header: 
        seq: 0
        stamp: 
          secs: 1627497989
          nsecs: 663565585
        frame_id: "/base_link"
      pose: 
        position: 
          x: 2.24147483801
          y: -0.576248782103
          z: 0.487881918372
        orientation: 
          x: 0.0411556413835
          y: -0.815661304952
          z: -0.059012084557
          w: 0.574038694395
    corners: 
      - 
        x: 979.31829834
        y: 374.158203125
        z: 0.0
      - 
        x: 996.952514648
        y: 285.418029785
        z: 0.0
      - 
        x: 1079.65698242
        y: 298.88192749
        z: 0.0
      - 
        x: 1060.02697754
        y: 385.739715576
        z: 0.0
  - 
    header: 
      seq: 0
      stamp: 
        secs: 1627497989
        nsecs: 663565585
      frame_id: "/base_link"
    id: 3
    reprojection_error: 0.51627767086
    pose: 
      header: 
        seq: 0
        stamp: 
          secs: 1627497989
          nsecs: 663565585
        frame_id: "/base_link"
      pose: 
        position: 
          x: 2.39607094186
          y: -0.731623737977
          z: 0.104928728061
        orientation: 
          x: 0.0773581511511
          y: -0.835876584214
          z: -0.0107047957947
          w: 0.543333654175
    corners: 
      - 
        x: 1034.06860352
        y: 571.06036377
        z: 0.0
      - 
        x: 1053.91015625
        y: 495.566223145
        z: 0.0
      - 
        x: 1127.6920166
        y: 504.709838867
        z: 0.0
      - 
        x: 1106.18261719
        y: 579.355957031
        z: 0.0
  - 
    header: 
      seq: 0
      stamp: 
        secs: 1627497989
        nsecs: 663565585
      frame_id: "/base_link"
    id: 8
    reprojection_error: 1.68678665161
    pose: 
      header: 
        seq: 0
        stamp: 
          secs: 1627497989
          nsecs: 663565585
        frame_id: "/base_link"
      pose: 
        position: 
          x: 2.29078157556
          y: -0.79850224137
          z: 0.46803637353
        orientation: 
          x: 0.0757926105154
          y: -0.807108465345
          z: -0.020967125599
          w: 0.585142533921
    corners: 
      - 
        x: 1080.38781738
        y: 389.17477417
        z: 0.0
      - 
        x: 1100.16052246
        y: 302.389038086
        z: 0.0
      - 
        x: 1177.88024902
        y: 315.763824463
        z: 0.0
      - 
        x: 1156.01599121
        y: 400.296783447
        z: 0.0
  - 
    header: 
      seq: 0
      stamp: 
        secs: 1627497989
        nsecs: 663565585
      frame_id: "/base_link"
    id: 9
    reprojection_error: 1.31325697899
    pose: 
      header: 
        seq: 0
        stamp: 
          secs: 1627497989
          nsecs: 663565585
        frame_id: "/base_link"
      pose: 
        position: 
          x: 2.34603563816
          y: -0.766880205234
          z: 0.285194260466
        orientation: 
          x: 0.0728606280386
          y: -0.826030543862
          z: -0.0183739901772
          w: 0.558594008179
    corners: 
      - 
        x: 1056.84033203
        y: 483.125091553
        z: 0.0
      - 
        x: 1076.93041992
        y: 402.026123047
        z: 0.0
      - 
        x: 1152.76501465
        y: 413.255401611
        z: 0.0
      - 
        x: 1130.93994141
        y: 492.603820801
        z: 0.0
---
header: 
  seq: 9
  stamp: 
    secs: 1627497989
    nsecs: 864436208
  frame_id: "/base_link"
markers: 
  - 
    header: 
      seq: 0
      stamp: 
        secs: 1627497989
        nsecs: 864436208
      frame_id: "/base_link"
    id: 0
    reprojection_error: 0.427641391754
    pose: 
      header: 
        seq: 0
        stamp: 
          secs: 1627497989
          nsecs: 864436208
        frame_id: "/base_link"
      pose: 
        position: 
          x: 2.32402393204
          y: -0.507458459298
          z: 0.123723237578
        orientation: 
          x: 0.0650851661714
          y: -0.846956873257
          z: -0.0205228455819
          w: 0.527263490863
    corners: 
      - 
        x: 938.900634766
        y: 560.654968262
        z: 0.0
      - 
        x: 956.104003906
        y: 483.423217773
        z: 0.0
      - 
        x: 1034.28210449
        y: 493.055419922
        z: 0.0
      - 
        x: 1014.62609863
        y: 569.219787598
        z: 0.0
  - 
    header: 
      seq: 0
      stamp: 
        secs: 1627497989
        nsecs: 864436208
      frame_id: "/base_link"
    id: 1
    reprojection_error: 1.18841433525
    pose: 
      header: 
        seq: 0
        stamp: 
          secs: 1627497989
          nsecs: 864436208
        frame_id: "/base_link"
      pose: 
        position: 
          x: 2.27482166734
          y: -0.540730793918
          z: 0.302127266888
        orientation: 
          x: 0.0560752038484
          y: -0.836640467038
          z: -0.0346937890208
          w: 0.543768922826
    corners: 
      - 
        x: 958.909545898
        y: 470.583496094
        z: 0.0
      - 
        x: 976.739196777
        y: 387.27947998
        z: 0.0
      - 
        x: 1057.09375
        y: 398.988128662
        z: 0.0
      - 
        x: 1037.20739746
        y: 480.684875488
        z: 0.0
  - 
    header: 
      seq: 0
      stamp: 
        secs: 1627497989
        nsecs: 864436208
      frame_id: "/base_link"
    id: 2
    reprojection_error: 1.99217903614
    pose: 
      header: 
        seq: 0
        stamp: 
          secs: 1627497989
          nsecs: 864436208
        frame_id: "/base_link"
      pose: 
        position: 
          x: 2.23968013122
          y: -0.575938900705
          z: 0.48760034444
        orientation: 
          x: 0.0417057235508
          y: -0.816426248474
          z: -0.0582738967496
          w: 0.57298600889
    corners: 
      - 
        x: 979.336975098
        y: 374.180633545
        z: 0.0
      - 
        x: 997.127807617
        y: 285.320861816
        z: 0.0
      - 
        x: 1079.80297852
        y: 298.847320557
        z: 0.0
      - 
        x: 1060.16162109
        y: 385.670898438
        z: 0.0
  - 
    header: 
      seq: 0
      stamp: 
        secs: 1627497989
        nsecs: 864436208
      frame_id: "/base_link"
    id: 3
    reprojection_error: 0.497927546501
    pose: 
      header: 
        seq: 0
        stamp: 
          secs: 1627497989
          nsecs: 864436208
        frame_id: "/base_link"
      pose: 
        position: 
          x: 2.3961020709
          y: -0.731625692853
          z: 0.104923693487
        orientation: 
          x: 0.0773198684083
          y: -0.835747146377
          z: -0.0107779449938
          w: 0.543536733969
    corners: 
      - 
        x: 1034.06567383
        y: 571.072143555
        z: 0.0
      - 
        x: 1053.89306641
        y: 495.528564453
        z: 0.0
      - 
        x: 1127.67956543
        y: 504.721221924
        z: 0.0
      - 
        x: 1106.18505859
        y: 579.339599609
        z: 0.0
  - 
    header: 
      seq: 0
      stamp: 
        secs: 1627497989
        nsecs: 864436208
      frame_id: "/base_link"
    id: 8
    reprojection_error: 1.84335339069
    pose: 
      header: 
        seq: 0
        stamp: 
          secs: 1627497989
          nsecs: 864436208
        frame_id: "/base_link"
      pose: 
        position: 
          x: 2.29282821836
          y: -0.799232221732
          z: 0.468326982687
        orientation: 
          x: 0.07491293221
          y: -0.807706664625
          z: -0.0217507342865
          w: 0.584401319357
    corners: 
      - 
        x: 1080.36755371
        y: 389.221069336
        z: 0.0
      - 
        x: 1100.10876465
        y: 302.497528076
        z: 0.0
      - 
        x: 1177.87280273
        y: 315.876556396
        z: 0.0
      - 
        x: 1155.98217773
        y: 400.268768311
        z: 0.0
  - 
    header: 
      seq: 0
      stamp: 
        secs: 1627497989
        nsecs: 864436208
      frame_id: "/base_link"
    id: 9
    reprojection_error: 1.32082378864
    pose: 
      header: 
        seq: 0
        stamp: 
          secs: 1627497989
          nsecs: 864436208
        frame_id: "/base_link"
      pose: 
        position: 
          x: 2.34691490871
          y: -0.767169460875
          z: 0.285331461397
        orientation: 
          x: 0.0721130153257
          y: -0.825479881811
          z: -0.0188549497366
          w: 0.559488309634
    corners: 
      - 
        x: 1056.86315918
        y: 483.130767822
        z: 0.0
      - 
        x: 1076.85144043
        y: 402.030731201
        z: 0.0
      - 
        x: 1152.71081543
        y: 413.225006104
        z: 0.0
      - 
        x: 1131.01171875
        y: 492.604949951
        z: 0.0
---
header: 
  seq: 10
  stamp: 
    secs: 1627497990
    nsecs:    559183
  frame_id: "/base_link"
markers: 
  - 
    header: 
      seq: 0
      stamp: 
        secs: 1627497990
        nsecs:    559183
      frame_id: "/base_link"
    id: 0
    reprojection_error: 0.469593733549
    pose: 
      header: 
        seq: 0
        stamp: 
          secs: 1627497990
          nsecs:    559183
        frame_id: "/base_link"
      pose: 
        position: 
          x: 2.32413918344
          y: -0.507518614383
          z: 0.123747104629
        orientation: 
          x: 0.0641374613332
          y: -0.847375050153
          z: -0.0215150200023
          w: 0.526667840623
    corners: 
      - 
        x: 938.878967285
        y: 560.604614258
        z: 0.0
      - 
        x: 956.105712891
        y: 483.410430908
        z: 0.0
      - 
        x: 1034.30578613
        y: 493.09967041
        z: 0.0
      - 
        x: 1014.70422363
        y: 569.19128418
        z: 0.0
  - 
    header: 
      seq: 0
      stamp: 
        secs: 1627497990
        nsecs:    559183
      frame_id: "/base_link"
    id: 1
    reprojection_error: 1.31333768368
    pose: 
      header: 
        seq: 0
        stamp: 
          secs: 1627497990
          nsecs:    559183
        frame_id: "/base_link"
      pose: 
        position: 
          x: 2.27467131297
          y: -0.540691205658
          z: 0.302026167315
        orientation: 
          x: 0.0550573226635
          y: -0.837256188988
          z: -0.0362483800549
          w: 0.542823009982
    corners: 
      - 
        x: 958.92364502
        y: 470.615692139
        z: 0.0
      - 
        x: 976.677185059
        y: 387.272186279
        z: 0.0
      - 
        x: 1057.2142334
        y: 399.164764404
        z: 0.0
      - 
        x: 1037.17858887
        y: 480.71661377
        z: 0.0
  - 
    header: 
      seq: 0
      stamp: 
        secs: 1627497990
        nsecs:    559183
      frame_id: "/base_link"
    id: 2
    reprojection_error: 2.16523504257
    pose: 
      header: 
        seq: 0
        stamp: 
          secs: 1627497990
          nsecs:    559183
        frame_id: "/base_link"
      pose: 
        position: 
          x: 2.24165056813
          y: -0.576451863255
          z: 0.488007408204
        orientation: 
          x: 0.040688988523
          y: -0.814597501861
          z: -0.0601420621608
          w: 0.575463507561
    corners: 
      - 
        x: 979.341796875
        y: 374.180480957
        z: 0.0
      - 
        x: 997.059204102
        y: 285.331848145
        z: 0.0
      - 
        x: 1079.72839355
        y: 298.960296631
        z: 0.0
      - 
        x: 1060.20092773
        y: 385.705505371
        z: 0.0
  - 
    header: 
      seq: 0
      stamp: 
        secs: 1627497990
        nsecs:    559183
      frame_id: "/base_link"
    id: 3
    reprojection_error: 0.695974349976
    pose: 
      header: 
        seq: 0
        stamp: 
          secs: 1627497990
          nsecs:    559183
        frame_id: "/base_link"
      pose: 
        position: 
          x: 2.3954731316
          y: -0.731377475412
          z: 0.104920881502
        orientation: 
          x: 0.076667207206
          y: -0.836130127897
          z: -0.0117657351467
          w: 0.543019443517
    corners: 
      - 
        x: 1033.93811035
        y: 570.990112305
        z: 0.0
      - 
        x: 1053.89428711
        y: 495.528106689
        z: 0.0
      - 
        x: 1127.68774414
        y: 504.72366333
        z: 0.0
      - 
        x: 1106.22937012
        y: 579.375976562
        z: 0.0
  - 
    header: 
      seq: 0
      stamp: 
        secs: 1627497990
        nsecs:    559183
      frame_id: "/base_link"
    id: 8
    reprojection_error: 1.77282476425
    pose: 
      header: 
        seq: 0
        stamp: 
          secs: 1627497990
          nsecs:    559183
        frame_id: "/base_link"
      pose: 
        position: 
          x: 2.29163313045
          y: -0.798802063209
          z: 0.468132962447
        orientation: 
          x: 0.0744511364908
          y: -0.807071424344
          z: -0.021964798671
          w: 0.585329216682
    corners: 
      - 
        x: 1080.39477539
        y: 389.217163086
        z: 0.0
      - 
        x: 1100.00964355
        y: 302.489654541
        z: 0.0
      - 
        x: 1177.88769531
        y: 315.770080566
        z: 0.0
      - 
        x: 1156.05187988
        y: 400.31930542
        z: 0.0
  - 
    header: 
      seq: 0
      stamp: 
        secs: 1627497990
        nsecs:    559183
      frame_id: "/base_link"
    id: 9
    reprojection_error: 1.36517071724
    pose: 
      header: 
        seq: 0
        stamp: 
          secs: 1627497990
          nsecs:    559183
        frame_id: "/base_link"
      pose: 
        position: 
          x: 2.34633068113
          y: -0.767080543962
          z: 0.285224827613
        orientation: 
          x: 0.073483355922
          y: -0.826017545107
          z: -0.0183322670615
          w: 0.558533024594
    corners: 
      - 
        x: 1056.8527832
        y: 483.114227295
        z: 0.0
      - 
        x: 1077.06860352
        y: 402.001983643
        z: 0.0
      - 
        x: 1152.80493164
        y: 413.329620361
        z: 0.0
      - 
        x: 1130.95397949
        y: 492.612457275
        z: 0.0
---
header: 
  seq: 11
  stamp: 
    secs: 1627497990
    nsecs: 205952910
  frame_id: "/base_link"
markers: 
  - 
    header: 
      seq: 0
      stamp: 
        secs: 1627497990
        nsecs: 205952910
      frame_id: "/base_link"
    id: 0
    reprojection_error: 0.419847309589
    pose: 
      header: 
        seq: 0
        stamp: 
          secs: 1627497990
          nsecs: 205952910
        frame_id: "/base_link"
      pose: 
        position: 
          x: 2.32300656691
          y: -0.507248903388
          z: 0.123692402041
        orientation: 
          x: 0.0658442605806
          y: -0.846761847571
          z: -0.0199857268732
          w: 0.527503059297
    corners: 
      - 
        x: 938.876464844
        y: 560.652648926
        z: 0.0
      - 
        x: 956.14630127
        y: 483.378631592
        z: 0.0
      - 
        x: 1034.30004883
        y: 493.006591797
        z: 0.0
      - 
        x: 1014.60662842
        y: 569.233764648
