header: 
  seq: 0
  stamp: 
    secs: 1627498162
    nsecs: 731994062
  frame_id: "/base_link"
markers: 
  - 
    header: 
      seq: 0
      stamp: 
        secs: 1627498162
        nsecs: 731994062
      frame_id: "/base_link"
    id: 0
    reprojection_error: 0.688790738583
    pose: 
      header: 
        seq: 0
        stamp: 
          secs: 1627498162
          nsecs: 731994062
        frame_id: "/base_link"
      pose: 
        position: 
          x: 2.32025448476
          y: -0.506596592356
          z: 0.12357072895
        orientation: 
          x: 0.0647486995798
          y: -0.846808524379
          z: -0.020044542105
          w: 0.527561508521
    corners: 
      - 
        x: 938.787902832
        y: 560.755615234
        z: 0.0
      - 
        x: 956.02746582
        y: 483.301544189
        z: 0.0
      - 
        x: 1034.25732422
        y: 492.923950195
        z: 0.0
      - 
        x: 1014.77612305
        y: 569.17779541
        z: 0.0
  - 
    header: 
      seq: 0
      stamp: 
        secs: 1627498162
        nsecs: 731994062
      frame_id: "/base_link"
    id: 1
    reprojection_error: 1.37454366684
    pose: 
      header: 
        seq: 0
        stamp: 
          secs: 1627498162
          nsecs: 731994062
        frame_id: "/base_link"
      pose: 
        position: 
          x: 2.27534756397
          y: -0.540848308669
          z: 0.302203276083
        orientation: 
          x: 0.0551651931282
          y: -0.83602021876
          z: -0.0357721020331
          w: 0.544745217518
    corners: 
      - 
        x: 958.885009766
        y: 470.636657715
        z: 0.0
      - 
        x: 976.727355957
        y: 387.218292236
        z: 0.0
      - 
        x: 1057.05249023
        y: 399.056976318
        z: 0.0
      - 
        x: 1037.32727051
        y: 480.683349609
        z: 0.0
  - 
    header: 
      seq: 0
      stamp: 
        secs: 1627498162
        nsecs: 731994062
      frame_id: "/base_link"
    id: 2
    reprojection_error: 2.0597922802
    pose: 
      header: 
        seq: 0
        stamp: 
          secs: 1627498162
          nsecs: 731994062
        frame_id: "/base_link"
      pose: 
        position: 
          x: 2.2412726672
          y: -0.576344855944
          z: 0.487993581348
        orientation: 
          x: 0.041347440313
          y: -0.815856532744
          z: -0.0583377192443
          w: 0.573816362325
    corners: 
      - 
        x: 979.336120605
        y: 374.123321533
        z: 0.0
      - 
        x: 997.077758789
        y: 285.331848145
        z: 0.0
      - 
        x: 1079.67016602
        y: 298.790893555
        z: 0.0
      - 
        x: 1060.17944336
        y: 385.589019775
        z: 0.0
  - 
    header: 
      seq: 0
      stamp: 
        secs: 1627498162
        nsecs: 731994062
      frame_id: "/base_link"
    id: 3
    reprojection_error: 0.646196365356
    pose: 
      header: 
        seq: 0
        stamp: 
          secs: 1627498162
          nsecs: 731994062
        frame_id: "/base_link"
      pose: 
        position: 
          x: 2.39228943837
          y: -0.73038298513
          z: 0.104740253077
        orientation: 
          x: 0.0768469768938
          y: -0.836379642075
          z: -0.0112735962728
          w: 0.542620071958
    corners: 
      - 
        x: 1033.9284668
        y: 571.036499023
        z: 0.0
      - 
        x: 1053.86120605
        y: 495.544342041
        z: 0.0
      - 
        x: 1127.78503418
        y: 504.642822266
        z: 0.0
      - 
        x: 1106.23254395
        y: 579.440002441
        z: 0.0
  - 
    header: 
      seq: 0
      stamp: 
        secs: 1627498162
        nsecs: 731994062
      frame_id: "/base_link"
    id: 8
    reprojection_error: 1.53910386562
    pose: 
      header: 
        seq: 0
        stamp: 
          secs: 1627498162
          nsecs: 731994062
        frame_id: "/base_link"
      pose: 
        position: 
          x: 2.28940843998
          y: -0.798044492913
          z: 0.467642409231
        orientation: 
          x: 0.076306826933
          y: -0.807203419661
          z: -0.0196735472094
          w: 0.584989622977
    corners: 
      - 
        x: 1080.44006348
        y: 389.228149414
        z: 0.0
      - 
        x: 1100.17236328
        y: 302.431976318
        z: 0.0
      - 
        x: 1177.86169434
        y: 315.679504395
        z: 0.0
      - 
        x: 1156.03479004
        y: 400.332366943
        z: 0.0
  - 
    header: 
      seq: 0
      stamp: 
        secs: 1627498162
        nsecs: 731994062
      frame_id: "/base_link"
    id: 9
    reprojection_error: 1.55691313744
    pose: 
      header: 
        seq: 0
        stamp: 
          secs: 1627498162
          nsecs: 731994062
        frame_id: "/base_link"
      pose: 
        position: 
          x: 2.34531897812
          y: -0.766895341711
          z: 0.285000845566
        orientation: 
          x: 0.073802094086
          y: -0.826363272975
          z: -0.0177870127681
          w: 0.557996966088
    corners: 
      - 
        x: 1056.88134766
        y: 483.242828369
        z: 0.0
      - 
        x: 1077.20214844
        y: 402.023284912
        z: 0.0
      - 
        x: 1152.87902832
        y: 413.41986084
        z: 0.0
      - 
        x: 1131.05712891
        y: 492.601196289
        z: 0.0
---
header: 
  seq: 1
  stamp: 
    secs: 1627498162
    nsecs: 912681285
  frame_id: "/base_link"
markers: 
  - 
    header: 
      seq: 0
      stamp: 
        secs: 1627498162
        nsecs: 912681285
      frame_id: "/base_link"
    id: 0
    reprojection_error: 0.386658579111
    pose: 
      header: 
        seq: 0
        stamp: 
          secs: 1627498162
          nsecs: 912681285
        frame_id: "/base_link"
      pose: 
        position: 
          x: 2.32081447116
          y: -0.506667702653
          z: 0.123580349317
        orientation: 
          x: 0.0656699954838
          y: -0.84721049427
          z: -0.0202681962431
          w: 0.526793157048
    corners: 
      - 
        x: 938.77355957
        y: 560.633361816
        z: 0.0
      - 
        x: 956.097595215
        y: 483.351898193
        z: 0.0
      - 
        x: 1034.33557129
        y: 492.990753174
        z: 0.0
      - 
        x: 1014.59716797
        y: 569.252258301
        z: 0.0
  - 
    header: 
      seq: 0
      stamp: 
        secs: 1627498162
        nsecs: 912681285
      frame_id: "/base_link"
    id: 1
    reprojection_error: 1.35835528374
    pose: 
      header: 
        seq: 0
        stamp: 
          secs: 1627498162
          nsecs: 912681285
        frame_id: "/base_link"
      pose: 
        position: 
          x: 2.27554977761
          y: -0.540861758586
          z: 0.302231539069
        orientation: 
          x: 0.0555717040718
          y: -0.836132655856
          z: -0.0357057095347
          w: 0.544535646055
    corners: 
      - 
        x: 958.832214355
        y: 470.586303711
        z: 0.0
      - 
        x: 976.747131348
        y: 387.236541748
        z: 0.0
      - 
        x: 1057.02868652
        y: 399.064880371
        z: 0.0
      - 
        x: 1037.25976562
        y: 480.709716797
        z: 0.0
  - 
    header: 
      seq: 0
      stamp: 
        secs: 1627498162
        nsecs: 912681285
      frame_id: "/base_link"
    id: 2
    reprojection_error: 1.98275768757
    pose: 
      header: 
        seq: 0
        stamp: 
          secs: 1627498162
          nsecs: 912681285
        frame_id: "/base_link"
      pose: 
        position: 
          x: 2.23923536481
          y: -0.575830364136
          z: 0.487458874726
        orientation: 
          x: 0.0435758832753
          y: -0.815745047916
          z: -0.0563309082941
          w: 0.574010442385
    corners: 
      - 
        x: 979.323120117
        y: 374.190948486
        z: 0.0
      - 
        x: 997.209228516
        y: 285.289764404
        z: 0.0
      - 
        x: 1079.72412109
        y: 298.838134766
        z: 0.0
      - 
        x: 1060.13891602
        y: 385.688568115
        z: 0.0
  - 
    header: 
      seq: 0
      stamp: 
        secs: 1627498162
        nsecs: 912681285
      frame_id: "/base_link"
    id: 3
    reprojection_error: 0.691326498985
    pose: 
      header: 
        seq: 0
        stamp: 
          secs: 1627498162
          nsecs: 912681285
        frame_id: "/base_link"
      pose: 
        position: 
          x: 2.39537107086
          y: -0.731278394769
          z: 0.104945998629
        orientation: 
          x: 0.0754835648639
          y: -0.836640073955
          z: -0.0128330161112
          w: 0.542375268412
    corners: 
      - 
        x: 1033.87756348
        y: 570.923950195
        z: 0.0
      - 
        x: 1053.7746582
        y: 495.523284912
        z: 0.0
      - 
        x: 1127.71203613
        y: 504.724182129
        z: 0.0
      - 
        x: 1106.22692871
        y: 579.353942871
        z: 0.0
  - 
    header: 
      seq: 0
      stamp: 
        secs: 1627498162
        nsecs: 912681285
      frame_id: "/base_link"
    id: 8
    reprojection_error: 1.82839357853
    pose: 
      header: 
        seq: 0
        stamp: 
          secs: 1627498162
          nsecs: 912681285
        frame_id: "/base_link"
      pose: 
        position: 
          x: 2.29080161594
          y: -0.7984525078
          z: 0.467927074463
        orientation: 
          x: 0.0749322427248
          y: -0.807186513443
          z: -0.0206450461599
          w: 0.585157135806
    corners: 
      - 
        x: 1080.45935059
        y: 389.295684814
        z: 0.0
      - 
        x: 1099.96508789
        y: 302.464050293
        z: 0.0
      - 
        x: 1177.85229492
        y: 315.730651855
        z: 0.0
      - 
        x: 1156.02050781
        y: 400.25479126
        z: 0.0
  - 
    header: 
      seq: 0
      stamp: 
        secs: 1627498162
        nsecs: 912681285
      frame_id: "/base_link"
    id: 9
    reprojection_error: 1.66452860832
    pose: 
      header: 
        seq: 0
        stamp: 
          secs: 1627498162
          nsecs: 912681285
        frame_id: "/base_link"
      pose: 
        position: 
          x: 2.34309353486
          y: -0.765981544211
          z: 0.284868863998
        orientation: 
          x: 0.0744436914987
          y: -0.825362015794
          z: -0.0166144196931
          w: 0.559427958489
    corners: 
      - 
        x: 1056.80505371
        y: 483.274383545
        z: 0.0
      - 
        x: 1077.14916992
        y: 401.839416504
        z: 0.0
      - 
        x: 1152.71679688
        y: 413.242156982
        z: 0.0
      - 
        x: 1131.12121582
        y: 492.520050049
        z: 0.0
---
header: 
  seq: 2
  stamp: 
    secs: 1627498163
    nsecs:  92672697
  frame_id: "/base_link"
markers: 
  - 
    header: 
      seq: 0
      stamp: 
        secs: 1627498163
        nsecs:  92672697
      frame_id: "/base_link"
    id: 0
    reprojection_error: 0.468809694052
    pose: 
      header: 
        seq: 0
        stamp: 
          secs: 1627498163
          nsecs:  92672697
        frame_id: "/base_link"
      pose: 
        position: 
          x: 2.32307072035
          y: -0.507260139913
          z: 0.123717749922
        orientation: 
          x: 0.063743009907
          y: -0.847247964001
          z: -0.0212138963727
          w: 0.52693233606
    corners: 
      - 
        x: 938.896789551
        y: 560.646118164
        z: 0.0
      - 
        x: 956.015563965
        y: 483.390777588
        z: 0.0
      - 
        x: 1034.29516602
        y: 493.001556396
        z: 0.0
      - 
        x: 1014.74517822
        y: 569.169494629
        z: 0.0
  - 
    header: 
      seq: 0
      stamp: 
        secs: 1627498163
        nsecs:  92672697
      frame_id: "/base_link"
    id: 1
    reprojection_error: 1.45573163033
    pose: 
      header: 
        seq: 0
        stamp: 
          secs: 1627498163
          nsecs:  92672697
        frame_id: "/base_link"
      pose: 
        position: 
          x: 2.27460718108
          y: -0.540655100743
          z: 0.302001986451
        orientation: 
          x: 0.0546242629915
          y: -0.83775463599
          z: -0.0371967446829
          w: 0.542032989729
    corners: 
      - 
        x: 958.832214355
        y: 470.578430176
        z: 0.0
      - 
        x: 976.706542969
        y: 387.243011475
        z: 0.0
      - 
        x: 1057.22546387
        y: 399.257965088
        z: 0.0
      - 
        x: 1037.19177246
        y: 480.703338623
        z: 0.0
  - 
    header: 
      seq: 0
      stamp: 
        secs: 1627498163
        nsecs:  92672697
      frame_id: "/base_link"
    id: 2
    reprojection_error: 1.94881677628
    pose: 
      header: 
        seq: 0
        stamp: 
          secs: 1627498163
          nsecs:  92672697
        frame_id: "/base_link"
      pose: 
        position: 
          x: 2.24190895625
          y: -0.576533077627
          z: 0.488085762858
        orientation: 
          x: 0.0422340778215
          y: -0.813850232386
          z: -0.058360409203
          w: 0.576591835317
    corners: 
      - 
        x: 979.366088867
        y: 374.108764648
        z: 0.0
      - 
        x: 997.136169434
        y: 285.325775146
        z: 0.0
      - 
        x: 1079.62780762
        y: 298.847686768
        z: 0.0
      - 
        x: 1060.18432617
        y: 385.709106445
        z: 0.0
  - 
    header: 
      seq: 0
      stamp: 
        secs: 1627498163
        nsecs:  92672697
      frame_id: "/base_link"
    id: 3
    reprojection_error: 0.578024804592
    pose: 
      header: 
        seq: 0
        stamp: 
          secs: 1627498163
          nsecs:  92672697
        frame_id: "/base_link"
      pose: 
        position: 
          x: 2.39370030096
          y: -0.730746746557
          z: 0.104820839351
        orientation: 
          x: 0.0763949089655
          y: -0.8368068273
          z: -0.0115606524793
          w: 0.54201891386
    corners: 
      - 
        x: 1033.91015625
        y: 571.01940918
        z: 0.0
      - 
        x: 1053.78369141
        y: 495.557128906
        z: 0.0
      - 
        x: 1127.74316406
        y: 504.70300293
        z: 0.0
      - 
        x: 1106.15881348
        y: 579.350097656
        z: 0.0
  - 
    header: 
      seq: 0
      stamp: 
        secs: 1627498163
        nsecs:  92672697
      frame_id: "/base_link"
    id: 8
    reprojection_error: 2.20705223083
    pose: 
      header: 
        seq: 0
        stamp: 
          secs: 1627498163
          nsecs:  92672697
        frame_id: "/base_link"
      pose: 
        position: 
          x: 2.29386281211
          y: -0.799744995428
          z: 0.468508028238
        orientation: 
          x: 0.0745577651406
          y: -0.806674588184
          z: -0.0237682958035
          w: 0.585792042068
    corners: 
      - 
        x: 1080.42919922
        y: 389.232116699
        z: 0.0
      - 
        x: 1100.15441895
        y: 302.342376709
        z: 0.0
      - 
        x: 1178.02172852
        y: 316.137359619
        z: 0.0
      - 
        x: 1156.07141113
        y: 400.261657715
        z: 0.0
  - 
    header: 
      seq: 0
      stamp: 
        secs: 1627498163
        nsecs:  92672697
      frame_id: "/base_link"
    id: 9
    reprojection_error: 1.50076878071
    pose: 
      header: 
        seq: 0
        stamp: 
          secs: 1627498163
          nsecs:  92672697
        frame_id: "/base_link"
      pose: 
        position: 
          x: 2.34767761908
          y: -0.767426779919
          z: 0.285349599938
        orientation: 
          x: 0.0716108613159
          y: -0.825817117881
          z: -0.0191321376984
          w: 0.559045555982
    corners: 
      - 
        x: 1056.79797363
        y: 483.179534912
        z: 0.0
      - 
        x: 1076.86376953
        y: 402.103851318
        z: 0.0
      - 
        x: 1152.65893555
        y: 413.298522949
        z: 0.0
      - 
        x: 1131.05993652
        y: 492.589874268
        z: 0.0
---
header: 
  seq: 3
  stamp: 
    secs: 1627498163
    nsecs: 271666706
  frame_id: "/base_link"
markers: 
  - 
    header: 
      seq: 0
      stamp: 
        secs: 1627498163
        nsecs: 271666706
      frame_id: "/base_link"
    id: 0
    reprojection_error: 0.509000778198
    pose: 
      header: 
        seq: 0
        stamp: 
          secs: 1627498163
          nsecs: 271666706
        frame_id: "/base_link"
      pose: 
        position: 
          x: 2.32044648335
          y: -0.506600072603
          z: 0.123545361992
        orientation: 
          x: 0.0647829636763
          y: -0.84703206157
          z: -0.020604705547
          w: 0.527176725965
    corners: 
      - 
        x: 938.807556152
        y: 560.714172363
        z: 0.0
      - 
        x: 956.012756348
        y: 483.336029053
        z: 0.0
      - 
        x: 1034.33288574
        y: 492.993103027
        z: 0.0
      - 
        x: 1014.6809082
        y: 569.25012207
        z: 0.0
  - 
    header: 
      seq: 0
      stamp: 
        secs: 1627498163
        nsecs: 271666706
      frame_id: "/base_link"
    id: 1
    reprojection_error: 1.52673387527
    pose: 
      header: 
        seq: 0
        stamp: 
          secs: 1627498163
          nsecs: 271666706
        frame_id: "/base_link"
      pose: 
        position: 
          x: 2.27672191342
          y: -0.541232609072
          z: 0.30233678234
        orientation: 
          x: 0.0549775074404
          y: -0.836355985571
          z: -0.0373640844541
          w: 0.544141584762
    corners: 
      - 
        x: 958.958740234
        y: 470.592193604
        z: 0.0
      - 
        x: 976.734619141
        y: 387.156646729
        z: 0.0
      - 
        x: 1057.20288086
        y: 399.302368164
        z: 0.0
      - 
        x: 1037.18554688
        y: 480.711975098
        z: 0.0
  - 
    header: 
      seq: 0
      stamp: 
        secs: 1627498163
        nsecs: 271666706
      frame_id: "/base_link"
    id: 2
    reprojection_error: 1.90863180161
    pose: 
      header: 
        seq: 0
        stamp: 
          secs: 1627498163
          nsecs: 271666706
        frame_id: "/base_link"
      pose: 
        position: 
          x: 2.23921797906
          y: -0.575657063449
          z: 0.487490594957
        orientation: 
          x: 0.0403523808578
          y: -0.816116074472
          z: -0.0596214700827
          w: 0.573386011909
    corners: 
      - 
        x: 979.24810791
        y: 374.157897949
        z: 0.0
      - 
        x: 996.922241211
        y: 285.374298096
        z: 0.0
      - 
        x: 1079.73864746
        y: 298.764587402
        z: 0.0
      - 
        x: 1060.10888672
        y: 385.747711182
        z: 0.0
  - 
    header: 
      seq: 0
      stamp: 
        secs: 1627498163
        nsecs: 271666706
      frame_id: "/base_link"
    id: 3
    reprojection_error: 0.507747411728
    pose: 
      header: 
        seq: 0
        stamp: 
          secs: 1627498163
          nsecs: 271666706
        frame_id: "/base_link"
      pose: 
        position: 
          x: 2.39374089987
          y: -0.73083667397
          z: 0.104751601857
        orientation: 
          x: 0.077259235169
          y: -0.835878700369
          z: -0.0103132300101
          w: 0.543352046225
    corners: 
      - 
        x: 1034.07849121
        y: 571.185791016
        z: 0.0
      - 
        x: 1053.76818848
        y: 495.567779541
        z: 0.0
      - 
        x: 1127.73950195
        y: 504.701782227
        z: 0.0
      - 
        x: 1106.13842773
        y: 579.397216797
        z: 0.0
  - 
    header: 
      seq: 0
      stamp: 
        secs: 1627498163
        nsecs: 271666706
      frame_id: "/base_link"
    id: 8
    reprojection_error: 1.91868793964
    pose: 
      header: 
        seq: 0
        stamp: 
          secs: 1627498163
          nsecs: 271666706
        frame_id: "/base_link"
      pose: 
        position: 
          x: 2.29272463281
          y: -0.799205431293
          z: 0.468398308851
        orientation: 
          x: 0.0744398608817
          y: -0.806758910207
          z: -0.0224718078256
          w: 0.585742081266
    corners: 
      - 
        x: 1080.3885498
        y: 389.216339111
        z: 0.0
      - 
        x: 1100.04614258
        y: 302.453155518
        z: 0.0
      - 
        x: 1177.87561035
        y: 315.868530273
        z: 0.0
      - 
        x: 1156.06762695
        y: 400.28414917
        z: 0.0
  - 
    header: 
      seq: 0
      stamp: 
        secs: 1627498163
        nsecs: 271666706
      frame_id: "/base_link"
    id: 9
    reprojection_error: 1.3456389904
    pose: 
      header: 
        seq: 0
        stamp: 
          secs: 1627498163
          nsecs: 271666706
        frame_id: "/base_link"
      pose: 
        position: 
          x: 2.34672278223
          y: -0.767130480632
          z: 0.285314483898
        orientation: 
          x: 0.0719764949241
          y: -0.825688080134
          z: -0.0186955108689
          w: 0.55920394882
    corners: 
      - 
        x: 1056.82055664
        y: 483.151031494
        z: 0.0
      - 
        x: 1076.92333984
        y: 402.051940918
        z: 0.0
      - 
        x: 1152.68359375
        y: 413.210601807
        z: 0.0
      - 
        x: 1131.10546875
        y: 492.575134277
        z: 0.0
---
header: 
  seq: 4
  stamp: 
    secs: 1627498163
    nsecs: 458629682
  frame_id: "/base_link"
markers: 
  - 
    header: 
      seq: 0
      stamp: 
        secs: 1627498163
        nsecs: 458629682
      frame_id: "/base_link"
    id: 0
    reprojection_error: 0.438849538565
    pose: 
      header: 
        seq: 0
        stamp: 
          secs: 1627498163
          nsecs: 458629682
        frame_id: "/base_link"
      pose: 
        position: 
          x: 2.32105567556
          y: -0.506749457348
          z: 0.123570341346
        orientation: 
          x: 0.0645559712783
          y: -0.847462789801
          z: -0.0211957361208
          w: 0.526488449299
    corners: 
      - 
        x: 938.789550781
        y: 560.636352539
        z: 0.0
      - 
        x: 956.049316406
        y: 483.380432129
        z: 0.0
      - 
        x: 1034.35876465
        y: 493.042877197
        z: 0.0
      - 
        x: 1014.66607666
        y: 569.263977051
        z: 0.0
  - 
    header: 
      seq: 0
      stamp: 
        secs: 1627498163
        nsecs: 458629682
      frame_id: "/base_link"
    id: 1
    reprojection_error: 1.20212519169
    pose: 
      header: 
        seq: 0
        stamp: 
          secs: 1627498163
          nsecs: 458629682
        frame_id: "/base_link"
      pose: 
        position: 
          x: 2.27485116536
          y: -0.540716709264
          z: 0.302111240194
        orientation: 
          x: 0.0557756426545
          y: -0.836922514107
          z: -0.0365649852557
          w: 0.543242841573
    corners: 
      - 
        x: 958.82019043
        y: 470.481658936
        z: 0.0
      - 
        x: 976.783691406
        y: 387.224853516
        z: 0.0
      - 
        x: 1057.18847656
        y: 399.145721436
        z: 0.0
      - 
        x: 1037.13806152
        y: 480.783660889
        z: 0.0
  - 
    header: 
      seq: 0
      stamp: 
        secs: 1627498163
        nsecs: 458629682
      frame_id: "/base_link"
    id: 2
    reprojection_error: 1.94357311726
    pose: 
      header: 
        seq: 0
        stamp: 
          secs: 1627498163
          nsecs: 458629682
        frame_id: "/base_link"
      pose: 
        position: 
          x: 2.23892676786
          y: -0.575647976719
          z: 0.487461777491
        orientation: 
          x: 0.0450740347751
          y: -0.813020034719
          z: -0.0548256226061
          w: 0.577893507179
    corners: 
      - 
        x: 979.28302002
        y: 374.152862549
        z: 0.0
      - 
        x: 997.156860352
        y: 285.237731934
        z: 0.0
      - 
        x: 1079.50512695
        y: 298.698760986
        z: 0.0
      - 
        x: 1060.14086914
        y: 385.738311768
        z: 0.0
  - 
    header: 
      seq: 0
      stamp: 
        secs: 1627498163
        nsecs: 458629682
      frame_id: "/base_link"
    id: 3
    reprojection_error: 0.715277373791
    pose: 
      header: 
        seq: 0
        stamp: 
          secs: 1627498163
          nsecs: 458629682
        frame_id: "/base_link"
      pose: 
        position: 
          x: 2.39482639762
          y: -0.731117059484
          z: 0.105005692974
        orientation: 
          x: 0.0769204965739
          y: -0.836067374214
          z: -0.0114783107738
          w: 0.543086394015
    corners: 
      - 
        x: 1033.91174316
        y: 570.922485352
        z: 0.0
      - 
        x: 1053.88586426
        y: 495.47756958
        z: 0.0
      - 
        x: 1127.6661377
        y: 504.612976074
        z: 0.0
      - 
        x: 1106.2064209
        y: 579.345703125
        z: 0.0
  - 
    header: 
      seq: 0
      stamp: 
        secs: 1627498163
        nsecs: 458629682
      frame_id: "/base_link"
    id: 8
    reprojection_error: 1.83586382866
    pose: 
      header: 
        seq: 0
        stamp: 
          secs: 1627498163
          nsecs: 458629682
        frame_id: "/base_link"
      pose: 
        position: 
          x: 2.28929513362
          y: -0.798074914715
          z: 0.467681386145
        orientation: 
          x: 0.0747648112881
          y: -0.808063081416
          z: -0.0210305534965
          w: 0.583953761238
    corners: 
      - 
        x: 1080.44958496
        y: 389.275604248
        z: 0.0
      - 
        x: 1100.10266113
        y: 302.364440918
        z: 0.0
      - 
        x: 1178.03955078
        y: 315.704681396
        z: 0.0
      - 
        x: 1156.11022949
        y: 400.205718994
        z: 0.0
  - 
    header: 
      seq: 0
      stamp: 
        secs: 1627498163
        nsecs: 458629682
      frame_id: "/base_link"
    id: 9
    reprojection_error: 1.31577050686
    pose: 
      header: 
        seq: 0
        stamp: 
          secs: 1627498163
          nsecs: 458629682
        frame_id: "/base_link"
      pose: 
        position: 
          x: 2.34614040801
          y: -0.766808900244
          z: 0.285127484437
        orientation: 
          x: 0.0735323143463
          y: -0.82604935372
          z: -0.0170754806495
          w: 0.558519374709
    corners: 
      - 
        x: 1056.81555176
        y: 483.204467773
        z: 0.0
      - 
        x: 1076.90783691
        y: 402.133544922
        z: 0.0
      - 
        x: 1152.63452148
        y: 413.242401123
        z: 0.0
      - 
        x: 1130.86340332
        y: 492.617919922
        z: 0.0
---
header: 
  seq: 5
  stamp: 
    secs: 1627498163
    nsecs: 638108349
  frame_id: "/base_link"
markers: 
  - 
    header: 
      seq: 0
      stamp: 
        secs: 1627498163
        nsecs: 638108349
      frame_id: "/base_link"
    id: 0
    reprojection_error: 0.561075687408
    pose: 
      header: 
        seq: 0
        stamp: 
          secs: 1627498163
          nsecs: 638108349
        frame_id: "/base_link"
      pose: 
        position: 
          x: 2.32316100067
          y: -0.507276427555
          z: 0.123695778198
        orientation: 
          x: 0.0650032588367
          y: -0.847017948906
          z: -0.0210232435324
          w: 0.527155758579
    corners: 
      - 
        x: 938.878723145
        y: 560.638793945
        z: 0.0
      - 
        x: 956.088256836
        y: 483.342468262
        z: 0.0
      - 
        x: 1034.33850098
        y: 493.090270996
        z: 0.0
      - 
        x: 1014.61254883
        y: 569.22265625
        z: 0.0
  - 
    header: 
      seq: 0
      stamp: 
        secs: 1627498163
        nsecs: 638108349
      frame_id: "/base_link"
    id: 1
    reprojection_error: 1.48269200325
    pose: 
      header: 
        seq: 0
        stamp: 
          secs: 1627498163
          nsecs: 638108349
        frame_id: "/base_link"
      pose: 
        position: 
          x: 2.27518911818
          y: -0.540734443762
          z: 0.302184010842
        orientation: 
          x: 0.0559690089486
          y: -0.835706509682
          z: -0.0358319572301
          w: 0.545140505332
    corners: 
      - 
        x: 958.821105957
        y: 470.607208252
        z: 0.0
      - 
        x: 976.717163086
        y: 387.13494873
        z: 0.0
      - 
        x: 1057.0411377
        y: 399.120605469
        z: 0.0
      - 
        x: 1037.19787598
        y: 480.72076416
        z: 0.0
  - 
    header: 
      seq: 0
      stamp: 
        secs: 1627498163
        nsecs: 638108349
      frame_id: "/base_link"
    id: 2
    reprojection_error: 2.09114289284
    pose: 
      header: 
        seq: 0
        stamp: 
          secs: 1627498163
          nsecs: 638108349
        frame_id: "/base_link"
      pose: 
        position: 
          x: 2.24279729165
          y: -0.576743722502
          z: 0.488331503738
        orientation: 
          x: 0.0411242755207
          y: -0.814213038926
          z: -0.0603124660006
          w: 0.575958616265
    corners: 
      - 
        x: 979.302001953
        y: 374.048400879
        z: 0.0
      - 
        x: 997.150146484
        y: 285.268096924
        z: 0.0
      - 
        x: 1079.6673584
        y: 298.94229126
        z: 0.0
      - 
        x: 1060.18859863
        y: 385.662597656
        z: 0.0
  - 
    header: 
      seq: 0
      stamp: 
        secs: 1627498163
        nsecs: 638108349
      frame_id: "/base_link"
    id: 3
    reprojection_error: 0.701275706291
    pose: 
      header: 
        seq: 0
        stamp: 
          secs: 1627498163
          nsecs: 638108349
        frame_id: "/base_link"
      pose: 
        position: 
          x: 2.39413283579
          y: -0.73101930413
          z: 0.104907697832
        orientation: 
          x: 0.0775205703848
          y: -0.836195366921
          z: -0.0108127279071
          w: 0.542817606957
    corners: 
      - 
        x: 1033.9666748
        y: 570.995910645
        z: 0.0
      - 
        x: 1053.96826172
        y: 495.521087646
        z: 0.0
      - 
        x: 1127.72888184
        y: 504.650360107
        z: 0.0
      - 
        x: 1106.21630859
        y: 579.362731934
        z: 0.0
  - 
    header: 
      seq: 0
      stamp: 
        secs: 1627498163
        nsecs: 638108349
      frame_id: "/base_link"
    id: 8
    reprojection_error: 1.90032756329
    pose: 
      header: 
        seq: 0
        stamp: 
          secs: 1627498163
          nsecs: 638108349
        frame_id: "/base_link"
      pose: 
        position: 
          x: 2.29212624634
          y: -0.799059402562
          z: 0.468252178378
        orientation: 
          x: 0.0754858304518
          y: -0.807512509659
          z: -0.0219684455641
          w: 0.584587738107
    corners: 
      - 
        x: 1080.35375977
        y: 389.20904541
        z: 0.0
      - 
        x: 1100.26428223
        y: 302.379577637
        z: 0.0
      - 
        x: 1177.94592285
        y: 315.948577881
        z: 0.0
      - 
        x: 1156.04699707
        y: 400.261383057
        z: 0.0
  - 
    header: 
      seq: 0
      stamp: 
        secs: 1627498163
        nsecs: 638108349
      frame_id: "/base_link"
    id: 9
    reprojection_error: 1.53147792816
    pose: 
      header: 
        seq: 0
        stamp: 
          secs: 1627498163
          nsecs: 638108349
        frame_id: "/base_link"
      pose: 
        position: 
          x: 2.34623591136
          y: -0.767049380316
          z: 0.285266362245
        orientation: 
          x: 0.0745191936508
          y: -0.824214858856
          z: -0.0178034013601
          w: 0.561070222983
    corners: 
      - 
        x: 1056.89416504
        y: 483.153076172
        z: 0.0
      - 
        x: 1077.0871582
        y: 401.835113525
        z: 0.0
      - 
        x: 1152.69226074
        y: 413.324920654
        z: 0.0
      - 
        x: 1131.00073242
        y: 492.633087158
        z: 0.0
---
header: 
  seq: 6
  stamp: 
    secs: 1627498163
    nsecs: 824709164
  frame_id: "/base_link"
markers: 
  - 
    header: 
      seq: 0
      stamp: 
        secs: 1627498163
        nsecs: 824709164
      frame_id: "/base_link"
    id: 0
    reprojection_error: 0.491256833076
    pose: 
      header: 
        seq: 0
        stamp: 
          secs: 1627498163
          nsecs: 824709164
        frame_id: "/base_link"
      pose: 
        position: 
          x: 2.32418911932
          y: -0.507579810833
          z: 0.123801882238
        orientation: 
          x: 0.0654638994271
          y: -0.84628223559
          z: -0.0203954550085
          w: 0.528303777208
    corners: 
      - 
        x: 938.943908691
        y: 560.658752441
        z: 0.0
      - 
        x: 956.161376953
        y: 483.307281494
        z: 0.0
      - 
        x: 1034.29260254
        y: 493.018310547
        z: 0.0
      - 
        x: 1014.66992188
        y: 569.203613281
        z: 0.0
  - 
    header: 
      seq: 0
      stamp: 
        secs: 1627498163
        nsecs: 824709164
      frame_id: "/base_link"
    id: 1
    reprojection_error: 1.4188760519
    pose: 
      header: 
        seq: 0
        stamp: 
          secs: 1627498163
          nsecs: 824709164
        frame_id: "/base_link"
      pose: 
        position: 
          x: 2.27523796563
          y: -0.54082350826
          z: 0.302158179831
        orientation: 
          x: 0.0565943485187
          y: -0.835635787326
          z: -0.0352691836621
          w: 0.545221051812
    corners: 
      - 
        x: 958.913146973
        y: 470.620544434
        z: 0.0
      - 
        x: 976.736572266
        y: 387.148986816
        z: 0.0
      - 
        x: 1057.1060791
        y: 399.127441406
        z: 0.0
      - 
        x: 1037.14074707
        y: 480.745361328
        z: 0.0
  - 
    header: 
      seq: 0
      stamp: 
        secs: 1627498163
        nsecs: 824709164
      frame_id: "/base_link"
    id: 2
    reprojection_error: 2.11731100082
    pose: 
      header: 
        seq: 0
        stamp: 
          secs: 1627498163
          nsecs: 824709164
        frame_id: "/base_link"
      pose: 
        position: 
          x: 2.24105075808
          y: -0.576309069663
          z: 0.487925422063
        orientation: 
          x: 0.0431425796898
          y: -0.814665148567
          z: -0.0573521749396
          w: 0.575473840898
    corners: 
      - 
        x: 979.319702148
        y: 374.164611816
        z: 0.0
      - 
        x: 997.211975098
        y: 285.300628662
        z: 0.0
      - 
        x: 1079.66455078
        y: 298.907562256
        z: 0.0
      - 
        x: 1060.15576172
        y: 385.680419922
        z: 0.0
  - 
    header: 
      seq: 0
      stamp: 
        secs: 1627498163
        nsecs: 824709164
      frame_id: "/base_link"
    id: 3
    reprojection_error: 0.630820512772
    pose: 
      header: 
        seq: 0
        stamp: 
          secs: 1627498163
          nsecs: 824709164
        frame_id: "/base_link"
      pose: 
        position: 
          x: 2.39873348546
          y: -0.732382726978
          z: 0.105092994584
        orientation: 
          x: 0.0762244248778
          y: -0.836057304261
          z: -0.0119958578269
          w: 0.543188844177
    corners: 
      - 
        x: 1034.03967285
        y: 570.907043457
        z: 0.0
      - 
        x: 1053.8157959
        y: 495.612365723
        z: 0.0
      - 
        x: 1127.63415527
        y: 504.706054688
        z: 0.0
      - 
        x: 1106.14367676
        y: 579.35345459
        z: 0.0
  - 
    header: 
      seq: 0
      stamp: 
        secs: 1627498163
        nsecs: 824709164
      frame_id: "/base_link"
    id: 8
    reprojection_error: 1.81798541546
    pose: 
      header: 
        seq: 0
        stamp: 
          secs: 1627498163
          nsecs: 824709164
        frame_id: "/base_link"
      pose: 
        position: 
          x: 2.29233427334
          y: -0.799219203597
          z: 0.468266260988
        orientation: 
          x: 0.0741079421343
          y: -0.807554070684
          z: -0.0228061905669
          w: 0.584674536392
    corners: 
      - 
        x: 1080.42810059
        y: 389.218200684
        z: 0.0
      - 
        x: 1100.16503906
        y: 302.421142578
        z: 0.0
      - 
        x: 1178.02575684
        y: 315.875091553
        z: 0.0
      - 
        x: 1156.15966797
        y: 400.240386963
        z: 0.0
  - 
    header: 
      seq: 0
      stamp: 
        secs: 1627498163
        nsecs: 824709164
      frame_id: "/base_link"
    id: 9
    reprojection_error: 1.26739048958
    pose: 
      header: 
        seq: 0
        stamp: 
          secs: 1627498163
          nsecs: 824709164
        frame_id: "/base_link"
      pose: 
        position: 
          x: 2.34599866716
          y: -0.766909207381
          z: 0.285271927684
        orientation: 
          x: 0.0719902670633
          y: -0.825974151039
          z: -0.0190983834687
          w: 0.558765921485
    corners: 
      - 
        x: 1056.84887695
        y: 483.079711914
        z: 0.0
      - 
        x: 1076.92272949
        y: 401.962371826
        z: 0.0
      - 
        x: 1152.7989502
        y: 413.193328857
        z: 0.0
      - 
        x: 1131.06359863
        y: 492.549987793
        z: 0.0
---
header: 
  seq: 7
  stamp: 
    secs: 1627498164
    nsecs:  13902992
  frame_id: "/base_link"
markers: 
  - 
    header: 
      seq: 0
      stamp: 
        secs: 1627498164
        nsecs:  13902992
      frame_id: "/base_link"
    id: 0
    reprojection_error: 0.359637260437
    pose: 
      header: 
        seq: 0
        stamp: 
          secs: 1627498164
          nsecs:  13902992
        frame_id: "/base_link"
      pose: 
        position: 
          x: 2.32356568976
          y: -0.507347200379
          z: 0.123767585183
        orientation: 
          x: 0.0655757429624
          y: -0.846605007137
          z: -0.0201663678484
          w: 0.527781300761
    corners: 
      - 
        x: 938.854858398
        y: 560.616577148
        z: 0.0
      - 
        x: 956.141113281
        y: 483.388519287
        z: 0.0
      - 
        x: 1034.24755859
        y: 492.964355469
        z: 0.0
      - 
        x: 1014.63330078
        y: 569.240478516
        z: 0.0
  - 
    header: 
      seq: 0
      stamp: 
        secs: 1627498164
        nsecs:  13902992
      frame_id: "/base_link"
    id: 1
    reprojection_error: 1.25976681709
    pose: 
      header: 
        seq: 0
        stamp: 
          secs: 1627498164
          nsecs:  13902992
        frame_id: "/base_link"
      pose: 
        position: 
          x: 2.27667265692
          y: -0.541097591101
          z: 0.302397446354
        orientation: 
          x: 0.0571158042934
          y: -0.835517141004
          z: -0.034671255347
          w: 0.545386831562
    corners: 
      - 
        x: 958.838439941
        y: 470.526733398
        z: 0.0
      - 
        x: 976.813842773
        y: 387.225646973
        z: 0.0
      - 
        x: 1056.95996094
        y: 399.042449951
        z: 0.0
      - 
        x: 1037.12512207
        y: 480.736572266
        z: 0.0
  - 
    header: 
      seq: 0
      stamp: 
        secs: 1627498164
        nsecs:  13902992
      frame_id: "/base_link"
    id: 2
    reprojection_error: 2.04185962677
    pose: 
      header: 
        seq: 0
        stamp: 
          secs: 1627498164
          nsecs:  13902992
        frame_id: "/base_link"
      pose: 
        position: 
          x: 2.2412996759
          y: -0.576356246507
          z: 0.48793230545
        orientation: 
          x: 0.0423341983503
          y: -0.815693868134
          z: -0.0583493630737
          w: 0.573974460204
    corners: 
      - 
        x: 979.277954102
        y: 374.081542969
        z: 0.0
      - 
        x: 997.197265625
        y: 285.309082031
        z: 0.0
      - 
        x: 1079.69091797
        y: 298.892700195
        z: 0.0
      - 
        x: 1060.12231445
        y: 385.674713135
        z: 0.0
  - 
    header: 
      seq: 0
      stamp: 
        secs: 1627498164
        nsecs:  13902992
      frame_id: "/base_link"
    id: 3
    reprojection_error: 0.613353073597
    pose: 
      header: 
        seq: 0
        stamp: 
          secs: 1627498164
          nsecs:  13902992
        frame_id: "/base_link"
      pose: 
        position: 
          x: 2.39735777006
          y: -0.731928051694
          z: 0.105033015898
        orientation: 
          x: 0.0772136946894
          y: -0.836225916478
          z: -0.0114555613828
          w: 0.54280109808
    corners: 
      - 
        x: 1033.99487305
        y: 570.905639648
        z: 0.0
      - 
        x: 1053.88098145
        y: 495.578460693
        z: 0.0
      - 
        x: 1127.66430664
        y: 504.714111328
        z: 0.0
      - 
        x: 1106.06774902
        y: 579.358032227
        z: 0.0
  - 
    header: 
      seq: 0
      stamp: 
        secs: 1627498164
        nsecs:  13902992
      frame_id: "/base_link"
    id: 8
    reprojection_error: 1.82266783714
    pose: 
      header: 
        seq: 0
        stamp: 
          secs: 1627498164
          nsecs:  13902992
        frame_id: "/base_link"
      pose: 
        position: 
          x: 2.29034863729
          y: -0.798537260875
          z: 0.467795859317
        orientation: 
          x: 0.0743611587702
          y: -0.807978724954
          z: -0.0226311074479
          w: 0.58406218082
    corners: 
      - 
        x: 1080.34020996
        y: 389.276000977
        z: 0.0
      - 
        x: 1100.26403809
        y: 302.375366211
        z: 0.0
      - 
        x: 1178.07556152
        y: 315.889953613
        z: 0.0
      - 
        x: 1156.22717285
        y: 400.264434814
        z: 0.0
  - 
    header: 
      seq: 0
      stamp: 
        secs: 1627498164
        nsecs:  13902992
      frame_id: "/base_link"
    id: 9
    reprojection_error: 1.33882331848
    pose: 
      header: 
        seq: 0
        stamp: 
          secs: 1627498164
          nsecs:  13902992
        frame_id: "/base_link"
      pose: 
        position: 
          x: 2.34931264198
          y: -0.768009423813
          z: 0.285676360484
        orientation: 
          x: 0.0709737687353
          y: -0.826022699764
          z: -0.0196716352181
          w: 0.558804304201
    corners: 
      - 
        x: 1056.8371582
        y: 483.057342529
        z: 0.0
      - 
        x: 1076.88525391
        y: 402.095672607
        z: 0.0
      - 
        x: 1152.66418457
        y: 413.226898193
        z: 0.0
      - 
        x: 1131.10351562
        y: 492.505645752
        z: 0.0
---
header: 
  seq: 8
  stamp: 
    secs: 1627498164
    nsecs: 214190774
  frame_id: "/base_link"
markers: 
  - 
    header: 
      seq: 0
      stamp: 
        secs: 1627498164
        nsecs: 214190774
      frame_id: "/base_link"
    id: 0
    reprojection_error: 0.568242192268
    pose: 
      header: 
        seq: 0
        stamp: 
          secs: 1627498164
          nsecs: 214190774
        frame_id: "/base_link"
      pose: 
        position: 
          x: 2.32522444149
          y: -0.507707574436
          z: 0.123767439646
        orientation: 
          x: 0.0637570806583
          y: -0.846853515823
          z: -0.0214437483346
          w: 0.527555042684
    corners: 
      - 
        x: 938.984924316
        y: 560.688781738
        z: 0.0
      - 
        x: 955.976745605
        y: 483.409973145
        z: 0.0
      - 
        x: 1034.27478027
        y: 493.102752686
        z: 0.0
      - 
        x: 1014.65490723
        y: 569.193847656
        z: 0.0
  - 
    header: 
      seq: 0
      stamp: 
        secs: 1627498164
        nsecs: 214190774
      frame_id: "/base_link"
    id: 1
    reprojection_error: 1.25971651077
    pose: 
      header: 
        seq: 0
        stamp: 
          secs: 1627498164
          nsecs: 214190774
        frame_id: "/base_link"
      pose: 
        position: 
          x: 2.27596729474
          y: -0.540994242345
          z: 0.302241265304
        orientation: 
          x: 0.0557334068773
          y: -0.836813344473
          z: -0.0356168377694
          w: 0.543478292794
    corners: 
      - 
        x: 958.906982422
        y: 470.566375732
        z: 0.0
      - 
        x: 976.747497559
        y: 387.276428223
        z: 0.0
      - 
        x: 1057.11083984
        y: 399.118591309
        z: 0.0
      - 
        x: 1037.16796875
        y: 480.689819336
        z: 0.0
  - 
    header: 
      seq: 0
      stamp: 
        secs: 1627498164
        nsecs: 214190774
      frame_id: "/base_link"
    id: 2
    reprojection_error: 2.28315758705
    pose: 
      header: 
        seq: 0
        stamp: 
          secs: 1627498164
          nsecs: 214190774
        frame_id: "/base_link"
      pose: 
        position: 
          x: 2.24473207333
          y: -0.577272222675
          z: 0.488557704083
        orientation: 
          x: 0.0400054288053
          y: -0.815148702432
          z: -0.0619590433941
          w: 0.574537410037
    corners: 
      - 
        x: 979.370239258
        y: 374.131530762
        z: 0.0
      - 
        x: 997.092407227
        y: 285.381744385
        z: 0.0
      - 
        x: 1079.75512695
        y: 299.211791992
        z: 0.0
      - 
        x: 1060.08679199
        y: 385.715240479
        z: 0.0
  - 
    header: 
      seq: 0
      stamp: 
        secs: 1627498164
        nsecs: 214190774
      frame_id: "/base_link"
    id: 3
    reprojection_error: 0.556029438972
    pose: 
      header: 
        seq: 0
        stamp: 
          secs: 1627498164
          nsecs: 214190774
        frame_id: "/base_link"
      pose: 
        position: 
          x: 2.39980181604
          y: -0.732721435217
          z: 0.105093601727
        orientation: 
          x: 0.0765337311112
          y: -0.835560696112
          z: -0.0118082686288
          w: 0.5439131143
    corners: 
      - 
        x: 1034.09753418
        y: 570.954528809
        z: 0.0
      - 
        x: 1053.80810547
        y: 495.614807129
        z: 0.0
      - 
        x: 1127.60009766
        y: 504.74887085
        z: 0.0
      - 
        x: 1106.11206055
        y: 579.379638672
        z: 0.0
  - 
    header: 
      seq: 0
      stamp: 
        secs: 1627498164
        nsecs: 214190774
      frame_id: "/base_link"
    id: 8
    reprojection_error: 1.79098653793
    pose: 
      header: 
        seq: 0
        stamp: 
          secs: 1627498164
          nsecs: 214190774
        frame_id: "/base_link"
      pose: 
        position: 
          x: 2.29050731524
          y: -0.798414108817
          z: 0.467980270538
        orientation: 
          x: 0.0767096003302
          y: -0.805457584515
          z: -0.0200894997954
          w: 0.587324551472
    corners: 
      - 
        x: 1080.44750977
        y: 389.176544189
        z: 0.0
      - 
        x: 1100.14758301
        y: 302.266235352
        z: 0.0
      - 
        x: 1177.7364502
        y: 315.762145996
        z: 0.0
      - 
        x: 1156.08312988
        y: 400.257446289
        z: 0.0
  - 
    header: 
      seq: 0
      stamp: 
        secs: 1627498164
        nsecs: 214190774
      frame_id: "/base_link"
    id: 9
    reprojection_error: 1.25432050228
    pose: 
      header: 
        seq: 0
        stamp: 
          secs: 1627498164
          nsecs: 214190774
        frame_id: "/base_link"
      pose: 
        position: 
          x: 2.34826954832
          y: -0.767586274268
          z: 0.285535799906
        orientation: 
          x: 0.0727830542562
          y: -0.825768766051
          z: -0.0188572115211
          w: 0.55897493468
    corners: 
      - 
        x: 1056.84692383
        y: 483.022857666
        z: 0.0
      - 
        x: 1076.92346191
        y: 402.020507812
        z: 0.0
      - 
        x: 1152.69824219
        y: 413.262695312
        z: 0.0
      - 
        x: 1130.88720703
        y: 492.578460693
        z: 0.0
---
header: 
  seq: 9
  stamp: 
    secs: 1627498164
    nsecs: 340094239
  frame_id: "/base_link"
markers: 
  - 
    header: 
      seq: 0
      stamp: 
        secs: 1627498164
        nsecs: 340094239
      frame_id: "/base_link"
    id: 0
    reprojection_error: 0.480670809746
    pose: 
      header: 
        seq: 0
        stamp: 
          secs: 1627498164
          nsecs: 340094239
        frame_id: "/base_link"
      pose: 
        position: 
          x: 2.32499009736
          y: -0.507646754925
          z: 0.123773214134
        orientation: 
          x: 0.0639806514653
          y: -0.847578997909
          z: -0.0221727300979
          w: 0.526331348659
    corners: 
      - 
        x: 938.832336426
        y: 560.549987793
        z: 0.0
      - 
        x: 956.101013184
        y: 483.422912598
        z: 0.0
      - 
        x: 1034.28637695
        y: 493.176818848
        z: 0.0
      - 
        x: 1014.64544678
        y: 569.208984375
        z: 0.0
  - 
    header: 
      seq: 0
      stamp: 
        secs: 1627498164
        nsecs: 340094239
      frame_id: "/base_link"
    id: 1
    reprojection_error: 1.31078124046
    pose: 
      header: 
        seq: 0
        stamp: 
          secs: 1627498164
          nsecs: 340094239
        frame_id: "/base_link"
      pose: 
        position: 
          x: 2.27480822894
          y: -0.540740126921
          z: 0.30206005166
        orientation: 
          x: 0.0567157529413
          y: -0.83680499583
          z: -0.0352761948798
          w: 0.543411733769
    corners: 
      - 
        x: 958.868591309
        y: 470.570251465
        z: 0.0
      - 
        x: 976.832397461
        y: 387.215942383
        z: 0.0
      - 
        x: 1057.17297363
        y: 399.167358398
        z: 0.0
      - 
        x: 1037.13244629
        y: 480.730865479
        z: 0.0
  - 
    header: 
      seq: 0
      stamp: 
        secs: 1627498164
        nsecs: 340094239
      frame_id: "/base_link"
    id: 2
    reprojection_error: 2.11386370659
    pose: 
      header: 
        seq: 0
        stamp: 
          secs: 1627498164
          nsecs: 340094239
        frame_id: "/base_link"
      pose: 
        position: 
          x: 2.24048127652
          y: -0.576052990531
          z: 0.487757029466
        orientation: 
          x: 0.0410239390114
          y: -0.814365853273
          z: -0.0598963003936
          w: 0.575793128346
    corners: 
      - 
        x: 979.301147461
        y: 374.139984131
        z: 0.0
      - 
        x: 996.98651123
        y: 285.242034912
        z: 0.0
      - 
        x: 1079.70739746
        y: 298.89440918
        z: 0.0
      - 
        x: 1060.14929199
        y: 385.710632324
        z: 0.0
  - 
    header: 
      seq: 0
      stamp: 
        secs: 1627498164
        nsecs: 340094239
      frame_id: "/base_link"
    id: 3
    reprojection_error: 0.749829530716
    pose: 
      header: 
        seq: 0
        stamp: 
          secs: 1627498164
          nsecs: 340094239
        frame_id: "/base_link"
      pose: 
        position: 
          x: 2.39897434654
          y: -0.732474127398
          z: 0.105107014312
        orientation: 
          x: 0.0765241704143
          y: -0.83601370546
          z: -0.0122784858109
          w: 0.543207487441
    corners: 
      - 
        x: 1033.99060059
        y: 570.876281738
        z: 0.0
      - 
        x: 1053.88024902
        y: 495.598999023
        z: 0.0
      - 
        x: 1127.62890625
        y: 504.755187988
        z: 0.0
      - 
        x: 1106.13427734
        y: 579.38482666
        z: 0.0
  - 
    header: 
      seq: 0
      stamp: 
        secs: 1627498164
        nsecs: 340094239
      frame_id: "/base_link"
    id: 8
    reprojection_error: 1.75144433975
    pose: 
      header: 
        seq: 0
        stamp: 
          secs: 1627498164
          nsecs: 340094239
        frame_id: "/base_link"
      pose: 
        position: 
          x: 2.29420445056
          y: -0.799769034392
          z: 0.468639402726
        orientation: 
          x: 0.0736449628689
          y: -0.807864797111
          z: -0.0226750643743
          w: 0.584308762974
    corners: 
      - 
        x: 1080.35900879
        y: 389.200622559
        z: 0.0
      - 
        x: 1100.08557129
        y: 302.562805176
        z: 0.0
      - 
        x: 1177.86474609
        y: 315.835510254
        z: 0.0
      - 
        x: 1156.09460449
        y: 400.218475342
        z: 0.0
  - 
    header: 
      seq: 0
      stamp: 
        secs: 1627498164
        nsecs: 340094239
      frame_id: "/base_link"
    id: 9
    reprojection_error: 1.29045820236
    pose: 
      header: 
        seq: 0
        stamp: 
          secs: 1627498164
          nsecs: 340094239
        frame_id: "/base_link"
      pose: 
        position: 
          x: 2.34846146752
          y: -0.767731410333
          z: 0.285550519889
        orientation: 
          x: 0.071509944495
          y: -0.825819563691
          z: -0.0199595967812
          w: 0.559025930131
    corners: 
      - 
        x: 1056.84057617
        y: 483.050018311
        z: 0.0
      - 
        x: 1076.93249512
        y: 402.016571045
        z: 0.0
      - 
        x: 1152.7454834
        y: 413.290557861
        z: 0.0
      - 
        x: 1131.06835938
        y: 492.561523438
        z: 0.0
---
header: 
  seq: 10
  stamp: 
    secs: 1627498164
    nsecs: 541897010
  frame_id: "/base_link"
markers: 
  - 
    header: 
      seq: 0
      stamp: 
        secs: 1627498164
        nsecs: 541897010
      frame_id: "/base_link"
    id: 0
    reprojection_error: 0.581961035728
    pose: 
      header: 
        seq: 0
        stamp: 
          secs: 1627498164
          nsecs: 541897010
        frame_id: "/base_link"
      pose: 
        position: 
          x: 2.32670271152
          y: -0.50815296528
          z: 0.123866780853
        orientation: 
          x: 0.0656772589055
          y: -0.846296230139
          z: -0.0206785908488
          w: 0.5282438683
    corners: 
      - 
        x: 938.999755859
        y: 560.618652344
        z: 0.0
      - 
        x: 956.16583252
        y: 483.37991333
        z: 0.0
      - 
        x: 1034.2767334
        y: 493.124847412
        z: 0.0
      - 
        x: 1014.54211426
        y: 569.231140137
        z: 0.0
  - 
    header: 
      seq: 0
      stamp: 
        secs: 1627498164
        nsecs: 541897010
      frame_id: "/base_link"
    id: 1
    reprojection_error: 1.32179570198
    pose: 
      header: 
        seq: 0
        stamp: 
          secs: 1627498164
          nsecs: 541897010
        frame_id: "/base_link"
      pose: 
        position: 
          x: 2.27835736497
          y: -0.541665122888
          z: 0.302600989303
        orientation: 
          x: 0.0569946445064
          y: -0.835993603309
          z: -0.0343051556975
          w: 0.544692080001
    corners: 
      - 
        x: 958.993713379
        y: 470.590759277
        z: 0.0
      - 
        x: 976.891296387
        y: 387.288726807
        z: 0.0
      - 
        x: 1057.01733398
        y: 399.135772705
        z: 0.0
      - 
        x: 1037.17724609
        y: 480.632995605
        z: 0.0
  - 
    header: 
      seq: 0
      stamp: 
        secs: 1627498164
        nsecs: 541897010
      frame_id: "/base_link"
    id: 2
    reprojection_error: 2.06945466995
    pose: 
      header: 
        seq: 0
        stamp: 
          secs: 1627498164
          nsecs: 541897010
        frame_id: "/base_link"
      pose: 
        position: 
          x: 2.24036185413
          y: -0.576066108373
          z: 0.48776961045
        orientation: 
          x: 0.0429607570117
          y: -0.814871141285
          z: -0.057899170345
          w: 0.575140924063
    corners: 
      - 
        x: 979.26373291
        y: 374.094970703
        z: 0.0
      - 
        x: 997.191101074
        y: 285.212432861
        z: 0.0
      - 
        x: 1079.67651367
        y: 298.877410889
        z: 0.0
      - 
        x: 1060.13464355
        y: 385.670532227
        z: 0.0
  - 
    header: 
      seq: 0
      stamp: 
        secs: 1627498164
        nsecs: 541897010
      frame_id: "/base_link"
    id: 3
    reprojection_error: 0.857026576996
    pose: 
      header: 
        seq: 0
        stamp: 
          secs: 1627498164
          nsecs: 541897010
        frame_id: "/base_link"
      pose: 
        position: 
          x: 2.39988141232
          y: -0.732694140415
          z: 0.105172683554
        orientation: 
          x: 0.0768177441173
          y: -0.836032421832
          z: -0.0119635556546
          w: 0.543144269205
    corners: 
      - 
        x: 1033.97314453
        y: 570.825866699
        z: 0.0
      - 
        x: 1053.88085938
        y: 495.642791748
        z: 0.0
      - 
        x: 1127.56079102
        y: 504.715942383
        z: 0.0
      - 
        x: 1106.07067871
        y: 579.377990723
        z: 0.0
  - 
    header: 
      seq: 0
      stamp: 
        secs: 1627498164
        nsecs: 541897010
      frame_id: "/base_link"
    id: 8
    reprojection_error: 1.59707486629
    pose: 
      header: 
        seq: 0
        stamp: 
          secs: 1627498164
          nsecs: 541897010
        frame_id: "/base_link"
      pose: 
        position: 
          x: 2.29123118736
          y: -0.798742605607
          z: 0.468167186273
        orientation: 
          x: 0.0760070802681
          y: -0.807252827683
          z: -0.0203055929613
          w: 0.58493886761
    corners: 
      - 
        x: 1080.40588379
        y: 389.147888184
        z: 0.0
      - 
        x: 1100.24072266
        y: 302.40524292
        z: 0.0
      - 
        x: 1177.82946777
        y: 315.6980896
        z: 0.0
      - 
        x: 1156.06811523
        y: 400.238861084
        z: 0.0
  - 
    header: 
      seq: 0
      stamp: 
        secs: 1627498164
        nsecs: 541897010
      frame_id: "/base_link"
    id: 9
    reprojection_error: 1.35520458221
    pose: 
      header: 
        seq: 0
        stamp: 
          secs: 1627498164
          nsecs: 541897010
        frame_id: "/base_link"
      pose: 
        position: 
          x: 2.34900466868
          y: -0.767905774792
          z: 0.285608878129
        orientation: 
          x: 0.0726051961012
          y: -0.825572810441
          z: -0.0188638943241
          w: 0.559287201401
    corners: 
      - 
        x: 1056.86901855
        y: 483.063690186
        z: 0.0
      - 
        x: 1076.97021484
        y: 402.03237915
        z: 0.0
      - 
        x: 1152.67053223
        y: 413.296539307
        z: 0.0
      - 
        x: 1130.97595215
        y: 492.553344727
        z: 0.0
---
header: 
  seq: 11
  stamp: 
    secs: 1627498164
    nsecs: 736662049
  frame_id: "/base_link"
markers: 
  - 
    header: 
      seq: 0
      stamp: 
        secs: 1627498164
        nsecs: 736662049
      frame_id: "/base_link"
    id: 0
    reprojection_error: 0.4283028543
    pose: 
      header: 
        seq: 0
        stamp: 
          secs: 1627498164
          nsecs: 736662049
        frame_id: "/base_link"
      pose: 
        position: 
          x: 2.32436853491
          y: -0.507508942852
          z: 0.123752363743
        orientation: 
          x: 0.0653031954233
          y: -0.846886250089
          z: -0.0202402378723
          w: 0.527360886727
    corners: 
      - 
        x: 938.950012207
        y: 560.637390137
        z: 0.0
      - 
        x: 956.060180664
        y: 483.451385498
        z: 0.0
      - 
        x: 1034.29272461
        y: 493.015319824
        z: 0.0
      - 
