header: 
  seq: 0
  stamp: 
    secs: 1627497828
    nsecs: 820603126
  frame_id: "/base_link"
markers: 
  - 
    header: 
      seq: 0
      stamp: 
        secs: 1627497828
        nsecs: 820603126
      frame_id: "/base_link"
    id: 0
    reprojection_error: 0.488731920719
    pose: 
      header: 
        seq: 0
        stamp: 
          secs: 1627497828
          nsecs: 820603126
        frame_id: "/base_link"
      pose: 
        position: 
          x: 2.32214007086
          y: -0.507155019588
          z: 0.123638102059
        orientation: 
          x: 0.0653299987377
          y: -0.846658392013
          z: -0.0204091087086
          w: 0.527716805475
    corners: 
      - 
        x: 938.862060547
        y: 560.652587891
        z: 0.0
      - 
        x: 956.172851562
        y: 483.356506348
        z: 0.0
      - 
        x: 1034.32543945
        y: 492.977050781
        z: 0.0
      - 
        x: 1014.73181152
        y: 569.266845703
        z: 0.0
  - 
    header: 
      seq: 0
      stamp: 
        secs: 1627497828
        nsecs: 820603126
      frame_id: "/base_link"
    id: 1
    reprojection_error: 1.0773563385
    pose: 
      header: 
        seq: 0
        stamp: 
          secs: 1627497828
          nsecs: 820603126
        frame_id: "/base_link"
      pose: 
        position: 
          x: 2.27606016444
          y: -0.541013451685
          z: 0.30224371071
        orientation: 
          x: 0.0555041474894
          y: -0.835945326848
          z: -0.0356065747055
          w: 0.544836555281
    corners: 
      - 
        x: 958.939086914
        y: 470.596923828
        z: 0.0
      - 
        x: 976.72668457
        y: 387.304534912
        z: 0.0
      - 
        x: 1057.06896973
        y: 399.039611816
        z: 0.0
      - 
        x: 1037.23876953
        y: 480.767364502
        z: 0.0
  - 
    header: 
      seq: 0
      stamp: 
        secs: 1627497828
        nsecs: 820603126
      frame_id: "/base_link"
    id: 2
    reprojection_error: 1.84675073624
    pose: 
      header: 
        seq: 0
        stamp: 
          secs: 1627497828
          nsecs: 820603126
        frame_id: "/base_link"
      pose: 
        position: 
          x: 2.24193381295
          y: -0.576440725206
          z: 0.4879837087
        orientation: 
          x: 0.0375347939484
          y: -0.817340108134
          z: -0.0629751387763
          w: 0.571472150481
    corners: 
      - 
        x: 979.330993652
        y: 374.12310791
        z: 0.0
      - 
        x: 996.893127441
        y: 285.523773193
        z: 0.0
      - 
        x: 1079.85327148
        y: 298.906982422
        z: 0.0
      - 
        x: 1060.11535645
        y: 385.775848389
        z: 0.0
  - 
    header: 
      seq: 0
      stamp: 
        secs: 1627497828
        nsecs: 820603126
      frame_id: "/base_link"
    id: 3
    reprojection_error: 0.424108147621
    pose: 
      header: 
        seq: 0
        stamp: 
          secs: 1627497828
          nsecs: 820603126
        frame_id: "/base_link"
      pose: 
        position: 
          x: 2.39253620856
          y: -0.730615631674
          z: 0.104648341832
        orientation: 
          x: 0.0779209806232
          y: -0.835667801332
          z: -0.00980702965459
          w: 0.54359126995
    corners: 
      - 
        x: 1034.14282227
        y: 571.273254395
        z: 0.0
      - 
        x: 1053.90307617
        y: 495.521148682
        z: 0.0
      - 
        x: 1127.82458496
        y: 504.739685059
        z: 0.0
      - 
        x: 1106.22741699
        y: 579.406677246
        z: 0.0
  - 
    header: 
      seq: 0
      stamp: 
        secs: 1627497828
        nsecs: 820603126
      frame_id: "/base_link"
    id: 8
    reprojection_error: 1.53428661823
    pose: 
      header: 
        seq: 0
        stamp: 
          secs: 1627497828
          nsecs: 820603126
        frame_id: "/base_link"
      pose: 
        position: 
          x: 2.28913070097
          y: -0.798026636192
          z: 0.467544020462
        orientation: 
          x: 0.0754689845802
          y: -0.808649129276
          z: -0.0207316440931
          w: 0.583061932406
    corners: 
      - 
        x: 1080.32751465
        y: 389.2371521
        z: 0.0
      - 
        x: 1100.27587891
        y: 302.474212646
        z: 0.0
      - 
        x: 1178.00085449
        y: 315.720550537
        z: 0.0
      - 
        x: 1156.0814209
        y: 400.332397461
        z: 0.0
  - 
    header: 
      seq: 0
      stamp: 
        secs: 1627497828
        nsecs: 820603126
      frame_id: "/base_link"
    id: 9
    reprojection_error: 1.3646491766
    pose: 
      header: 
        seq: 0
        stamp: 
          secs: 1627497828
          nsecs: 820603126
        frame_id: "/base_link"
      pose: 
        position: 
          x: 2.34319376687
          y: -0.765941625408
          z: 0.284891624465
        orientation: 
          x: 0.0738766508087
          y: -0.825235641319
          z: -0.016372633412
          w: 0.55969662643
    corners: 
      - 
        x: 1056.8013916
        y: 483.210998535
        z: 0.0
      - 
        x: 1076.99914551
        y: 401.992370605
        z: 0.0
      - 
        x: 1152.63024902
        y: 413.049285889
        z: 0.0
      - 
        x: 1131.08618164
        y: 492.611907959
        z: 0.0
---
header: 
  seq: 1
  stamp: 
    secs: 1627497829
    nsecs:   7677186
  frame_id: "/base_link"
markers: 
  - 
    header: 
      seq: 0
      stamp: 
        secs: 1627497829
        nsecs:   7677186
      frame_id: "/base_link"
    id: 0
    reprojection_error: 0.465292870998
    pose: 
      header: 
        seq: 0
        stamp: 
          secs: 1627497829
          nsecs:   7677186
        frame_id: "/base_link"
      pose: 
        position: 
          x: 2.32276219645
          y: -0.507254953422
          z: 0.123546387858
        orientation: 
          x: 0.0649910174087
          y: -0.847130862192
          z: -0.0206876814492
          w: 0.526989079407
    corners: 
      - 
        x: 938.898010254
        y: 560.714294434
        z: 0.0
      - 
        x: 956.13885498
        y: 483.437805176
        z: 0.0
      - 
        x: 1034.35510254
        y: 493.113464355
        z: 0.0
      - 
        x: 1014.69024658
        y: 569.270324707
        z: 0.0
  - 
    header: 
      seq: 0
      stamp: 
        secs: 1627497829
        nsecs:   7677186
      frame_id: "/base_link"
    id: 1
    reprojection_error: 1.37882733345
    pose: 
      header: 
        seq: 0
        stamp: 
          secs: 1627497829
          nsecs:   7677186
        frame_id: "/base_link"
      pose: 
        position: 
          x: 2.27553847626
          y: -0.541029259656
          z: 0.302175787161
        orientation: 
          x: 0.0555383209379
          y: -0.836535180714
          z: -0.0356565905342
          w: 0.543923702265
    corners: 
      - 
        x: 958.977478027
        y: 470.640838623
        z: 0.0
      - 
        x: 976.801269531
        y: 387.235900879
        z: 0.0
      - 
        x: 1057.17578125
        y: 399.143218994
        z: 0.0
      - 
        x: 1037.29541016
        y: 480.676574707
        z: 0.0
  - 
    header: 
      seq: 0
      stamp: 
        secs: 1627497829
        nsecs:   7677186
      frame_id: "/base_link"
    id: 2
    reprojection_error: 1.83399498463
    pose: 
      header: 
        seq: 0
        stamp: 
          secs: 1627497829
          nsecs:   7677186
        frame_id: "/base_link"
      pose: 
        position: 
          x: 2.24168226897
          y: -0.576412025961
          z: 0.487936583286
        orientation: 
          x: 0.0408090609412
          y: -0.816101244094
          z: -0.0593696596433
          w: 0.573400927317
    corners: 
      - 
        x: 979.330322266
        y: 374.119506836
        z: 0.0
      - 
        x: 997.050598145
        y: 285.452514648
        z: 0.0
      - 
        x: 1079.70568848
        y: 298.852630615
        z: 0.0
      - 
        x: 1060.10375977
        y: 385.740905762
        z: 0.0
  - 
    header: 
      seq: 0
      stamp: 
        secs: 1627497829
        nsecs:   7677186
      frame_id: "/base_link"
    id: 3
    reprojection_error: 0.47992181778
    pose: 
      header: 
        seq: 0
        stamp: 
          secs: 1627497829
          nsecs:   7677186
        frame_id: "/base_link"
      pose: 
        position: 
          x: 2.39346488233
          y: -0.730790688795
          z: 0.104702427998
        orientation: 
          x: 0.0777719344912
          y: -0.835463480807
          z: -0.0100910034101
          w: 0.543921382273
    corners: 
      - 
        x: 1034.06750488
        y: 571.205200195
        z: 0.0
      - 
        x: 1053.85961914
        y: 495.554626465
        z: 0.0
      - 
        x: 1127.71899414
        y: 504.700714111
        z: 0.0
      - 
        x: 1106.1907959
        y: 579.450805664
        z: 0.0
  - 
    header: 
      seq: 0
      stamp: 
        secs: 1627497829
        nsecs:   7677186
      frame_id: "/base_link"
    id: 8
    reprojection_error: 1.55660820007
    pose: 
      header: 
        seq: 0
        stamp: 
          secs: 1627497829
          nsecs:   7677186
        frame_id: "/base_link"
      pose: 
        position: 
          x: 2.28971654107
          y: -0.798203619213
          z: 0.467695887052
        orientation: 
          x: 0.0756189114061
          y: -0.807398978762
          z: -0.0202216551916
          w: 0.584790350462
    corners: 
      - 
        x: 1080.36206055
        y: 389.259674072
        z: 0.0
      - 
        x: 1100.22131348
        y: 302.467437744
        z: 0.0
      - 
        x: 1177.84033203
        y: 315.692840576
        z: 0.0
      - 
        x: 1156.15576172
        y: 400.308227539
        z: 0.0
  - 
    header: 
      seq: 0
      stamp: 
        secs: 1627497829
        nsecs:   7677186
      frame_id: "/base_link"
    id: 9
    reprojection_error: 1.39529585838
    pose: 
      header: 
        seq: 0
        stamp: 
          secs: 1627497829
          nsecs:   7677186
        frame_id: "/base_link"
      pose: 
        position: 
          x: 2.34821645297
          y: -0.767693370452
          z: 0.285401680413
        orientation: 
          x: 0.0708289368934
          y: -0.826087626665
          z: -0.0200499047958
          w: 0.558713250323
    corners: 
      - 
        x: 1056.83227539
        y: 483.143096924
        z: 0.0
      - 
        x: 1076.87414551
        y: 402.139068604
        z: 0.0
      - 
        x: 1152.74829102
        y: 413.31930542
        z: 0.0
      - 
        x: 1131.11657715
        y: 492.613739014
        z: 0.0
---
header: 
  seq: 2
  stamp: 
    secs: 1627497829
    nsecs: 140829326
  frame_id: "/base_link"
markers: 
  - 
    header: 
      seq: 0
      stamp: 
        secs: 1627497829
        nsecs: 140829326
      frame_id: "/base_link"
    id: 0
    reprojection_error: 0.569180428982
    pose: 
      header: 
        seq: 0
        stamp: 
          secs: 1627497829
          nsecs: 140829326
        frame_id: "/base_link"
      pose: 
        position: 
          x: 2.32373604369
          y: -0.507453844462
          z: 0.12366813328
        orientation: 
          x: 0.0641469909247
          y: -0.847286537375
          z: -0.0216780258802
          w: 0.526802382618
    corners: 
      - 
        x: 938.854797363
        y: 560.652832031
        z: 0.0
      - 
        x: 956.144287109
        y: 483.395629883
        z: 0.0
      - 
        x: 1034.31518555
        y: 493.157104492
        z: 0.0
      - 
        x: 1014.7532959
        y: 569.219238281
        z: 0.0
  - 
    header: 
      seq: 0
      stamp: 
        secs: 1627497829
        nsecs: 140829326
      frame_id: "/base_link"
    id: 1
    reprojection_error: 1.10565471649
    pose: 
      header: 
        seq: 0
        stamp: 
          secs: 1627497829
          nsecs: 140829326
        frame_id: "/base_link"
      pose: 
        position: 
          x: 2.27606725132
          y: -0.541130737143
          z: 0.302234297268
        orientation: 
          x: 0.0565727641671
          y: -0.836228124843
          z: -0.0341498765016
          w: 0.544385737791
    corners: 
      - 
        x: 959.041809082
        y: 470.643096924
        z: 0.0
      - 
        x: 976.78692627
        y: 387.343170166
        z: 0.0
      - 
        x: 1057.1217041
        y: 399.038482666
        z: 0.0
      - 
        x: 1037.19189453
        y: 480.721252441
        z: 0.0
  - 
    header: 
      seq: 0
      stamp: 
        secs: 1627497829
        nsecs: 140829326
      frame_id: "/base_link"
    id: 2
    reprojection_error: 1.82529115677
    pose: 
      header: 
        seq: 0
        stamp: 
          secs: 1627497829
          nsecs: 140829326
        frame_id: "/base_link"
      pose: 
        position: 
          x: 2.24126564218
          y: -0.576359909321
          z: 0.487923454482
        orientation: 
          x: 0.0419351875031
          y: -0.815558499699
          z: -0.0580709971822
          w: 0.574224287979
    corners: 
      - 
        x: 979.38079834
        y: 374.110717773
        z: 0.0
      - 
        x: 997.121520996
        y: 285.372497559
        z: 0.0
      - 
        x: 1079.70129395
        y: 298.80090332
        z: 0.0
      - 
        x: 1060.13757324
        y: 385.69152832
        z: 0.0
  - 
    header: 
      seq: 0
      stamp: 
        secs: 1627497829
        nsecs: 140829326
      frame_id: "/base_link"
    id: 3
    reprojection_error: 0.664202988148
    pose: 
      header: 
        seq: 0
        stamp: 
          secs: 1627497829
          nsecs: 140829326
        frame_id: "/base_link"
      pose: 
        position: 
          x: 2.39437866647
          y: -0.731047399244
          z: 0.104843563886
        orientation: 
          x: 0.076748342102
          y: -0.836345425696
          z: -0.0117243098124
          w: 0.542677216641
    corners: 
      - 
        x: 1033.93286133
        y: 570.985412598
        z: 0.0
      - 
        x: 1053.88427734
        y: 495.536956787
        z: 0.0
      - 
        x: 1127.74291992
        y: 504.708618164
        z: 0.0
      - 
        x: 1106.20703125
        y: 579.403320312
        z: 0.0
  - 
    header: 
      seq: 0
      stamp: 
        secs: 1627497829
        nsecs: 140829326
      frame_id: "/base_link"
    id: 8
    reprojection_error: 1.66074597836
    pose: 
      header: 
        seq: 0
        stamp: 
          secs: 1627497829
          nsecs: 140829326
        frame_id: "/base_link"
      pose: 
        position: 
          x: 2.29143956398
          y: -0.79891143409
          z: 0.468014081113
        orientation: 
          x: 0.0746006026766
          y: -0.808125090359
          z: -0.0219769635556
          w: 0.583854092634
    corners: 
      - 
        x: 1080.39770508
        y: 389.231201172
        z: 0.0
      - 
        x: 1100.23132324
        y: 302.490478516
        z: 0.0
      - 
        x: 1178.01818848
        y: 315.8253479
        z: 0.0
      - 
        x: 1156.13366699
        y: 400.297119141
        z: 0.0
  - 
    header: 
      seq: 0
      stamp: 
        secs: 1627497829
        nsecs: 140829326
      frame_id: "/base_link"
    id: 9
    reprojection_error: 1.39950489998
    pose: 
      header: 
        seq: 0
        stamp: 
          secs: 1627497829
          nsecs: 140829326
        frame_id: "/base_link"
      pose: 
        position: 
          x: 2.34588109061
          y: -0.766941938352
          z: 0.285207769303
        orientation: 
          x: 0.0728740522835
          y: -0.825426685743
          z: -0.0183749191365
          w: 0.559484156446
    corners: 
      - 
        x: 1056.84082031
        y: 483.139099121
        z: 0.0
      - 
        x: 1077.02380371
        y: 401.98348999
        z: 0.0
      - 
        x: 1152.73571777
        y: 413.230224609
        z: 0.0
      - 
        x: 1131.09863281
        y: 492.607635498
        z: 0.0
---
header: 
  seq: 3
  stamp: 
    secs: 1627497829
    nsecs: 339666902
  frame_id: "/base_link"
markers: 
  - 
    header: 
      seq: 0
      stamp: 
        secs: 1627497829
        nsecs: 339666902
      frame_id: "/base_link"
    id: 0
    reprojection_error: 0.601373970509
    pose: 
      header: 
        seq: 0
        stamp: 
          secs: 1627497829
          nsecs: 339666902
        frame_id: "/base_link"
      pose: 
        position: 
          x: 2.32447370298
          y: -0.507643667143
          z: 0.123722803289
        orientation: 
          x: 0.0647110734049
          y: -0.846886162306
          z: -0.0212269026346
          w: 0.527395225308
    corners: 
      - 
        x: 938.917114258
        y: 560.67401123
        z: 0.0
      - 
        x: 956.141235352
        y: 483.388366699
        z: 0.0
      - 
        x: 1034.31604004
        y: 493.152069092
        z: 0.0
      - 
        x: 1014.68353271
        y: 569.230529785
        z: 0.0
  - 
    header: 
      seq: 0
      stamp: 
        secs: 1627497829
        nsecs: 339666902
      frame_id: "/base_link"
    id: 1
    reprojection_error: 0.995787143707
    pose: 
      header: 
        seq: 0
        stamp: 
          secs: 1627497829
          nsecs: 339666902
        frame_id: "/base_link"
      pose: 
        position: 
          x: 2.27428218834
          y: -0.540715298998
          z: 0.30202002629
        orientation: 
          x: 0.057012689456
          y: -0.83665370488
          z: -0.0333618738821
          w: 0.543734417453
    corners: 
      - 
        x: 959.048339844
        y: 470.649017334
        z: 0.0
      - 
        x: 976.794616699
        y: 387.339935303
        z: 0.0
      - 
        x: 1057.18969727
        y: 398.954193115
        z: 0.0
      - 
        x: 1037.18884277
        y: 480.712677002
        z: 0.0
  - 
    header: 
      seq: 0
      stamp: 
        secs: 1627497829
        nsecs: 339666902
      frame_id: "/base_link"
    id: 2
    reprojection_error: 1.91893458366
    pose: 
      header: 
        seq: 0
        stamp: 
          secs: 1627497829
          nsecs: 339666902
        frame_id: "/base_link"
      pose: 
        position: 
          x: 2.24223759232
          y: -0.576575505278
          z: 0.488177807333
        orientation: 
          x: 0.0402338573661
          y: -0.816142986177
          z: -0.0602481791962
          w: 0.573290519492
    corners: 
      - 
        x: 979.319152832
        y: 374.091247559
        z: 0.0
      - 
        x: 997.086486816
        y: 285.410644531
        z: 0.0
      - 
        x: 1079.73461914
        y: 298.87588501
        z: 0.0
      - 
        x: 1060.14685059
        y: 385.680236816
        z: 0.0
  - 
    header: 
      seq: 0
      stamp: 
        secs: 1627497829
        nsecs: 339666902
      frame_id: "/base_link"
    id: 3
    reprojection_error: 0.453884392977
    pose: 
      header: 
        seq: 0
        stamp: 
          secs: 1627497829
          nsecs: 339666902
        frame_id: "/base_link"
      pose: 
        position: 
          x: 2.39538703293
          y: -0.731474782908
          z: 0.104808692519
        orientation: 
          x: 0.0775870305324
          y: -0.835340310267
          z: -0.00997939720702
          w: 0.544138980746
    corners: 
      - 
        x: 1034.17480469
        y: 571.190429688
        z: 0.0
      - 
        x: 1053.86218262
        y: 495.593414307
        z: 0.0
      - 
        x: 1127.70837402
        y: 504.692474365
        z: 0.0
      - 
        x: 1106.19958496
        y: 579.411193848
        z: 0.0
  - 
    header: 
      seq: 0
      stamp: 
        secs: 1627497829
        nsecs: 339666902
      frame_id: "/base_link"
    id: 8
    reprojection_error: 1.60722279549
    pose: 
      header: 
        seq: 0
        stamp: 
          secs: 1627497829
          nsecs: 339666902
        frame_id: "/base_link"
      pose: 
        position: 
          x: 2.29098867381
          y: -0.798644075166
          z: 0.467986960529
        orientation: 
          x: 0.0750287775831
          y: -0.807352975193
          z: -0.0210201900303
          w: 0.584901707634
    corners: 
      - 
        x: 1080.42797852
        y: 389.215026855
        z: 0.0
      - 
        x: 1100.12438965
        y: 302.468383789
        z: 0.0
      - 
        x: 1177.89172363
        y: 315.713226318
        z: 0.0
      - 
        x: 1156.09997559
        y: 400.284912109
        z: 0.0
  - 
    header: 
      seq: 0
      stamp: 
        secs: 1627497829
        nsecs: 339666902
      frame_id: "/base_link"
    id: 9
    reprojection_error: 1.20785069466
    pose: 
      header: 
        seq: 0
        stamp: 
          secs: 1627497829
          nsecs: 339666902
        frame_id: "/base_link"
      pose: 
        position: 
          x: 2.34807240701
          y: -0.767659608498
          z: 0.285427238465
        orientation: 
          x: 0.070822416349
          y: -0.826386016106
          z: -0.019689245382
          w: 0.558285474774
    corners: 
      - 
        x: 1056.89196777
        y: 483.09765625
        z: 0.0
      - 
        x: 1076.86108398
        y: 402.155914307
        z: 0.0
      - 
        x: 1152.78710938
        y: 413.229827881
        z: 0.0
      - 
        x: 1131.09216309
        y: 492.58303833
        z: 0.0
---
header: 
  seq: 4
  stamp: 
    secs: 1627497829
    nsecs: 475316627
  frame_id: "/base_link"
markers: 
  - 
    header: 
      seq: 0
      stamp: 
        secs: 1627497829
        nsecs: 475316627
      frame_id: "/base_link"
    id: 0
    reprojection_error: 0.607363700867
    pose: 
      header: 
        seq: 0
        stamp: 
          secs: 1627497829
          nsecs: 475316627
        frame_id: "/base_link"
      pose: 
        position: 
          x: 2.32563142308
          y: -0.50796116844
          z: 0.123763882514
        orientation: 
          x: 0.0658169098018
          y: -0.846040090217
          z: -0.0197909743226
          w: 0.528670613393
    corners: 
      - 
        x: 939.064758301
        y: 560.772705078
        z: 0.0
      - 
        x: 956.168884277
        y: 483.399353027
        z: 0.0
      - 
        x: 1034.29772949
        y: 493.099731445
        z: 0.0
      - 
        x: 1014.63122559
        y: 569.22833252
        z: 0.0
  - 
    header: 
      seq: 0
      stamp: 
        secs: 1627497829
        nsecs: 475316627
      frame_id: "/base_link"
    id: 1
    reprojection_error: 1.12063360214
    pose: 
      header: 
        seq: 0
        stamp: 
          secs: 1627497829
          nsecs: 475316627
        frame_id: "/base_link"
      pose: 
        position: 
          x: 2.27529905458
          y: -0.540879185468
          z: 0.302078733896
        orientation: 
          x: 0.0562872860383
          y: -0.836836393033
          z: -0.0349898849728
          w: 0.543426444586
    corners: 
      - 
        x: 958.951660156
        y: 470.600952148
        z: 0.0
      - 
        x: 976.759155273
        y: 387.346984863
        z: 0.0
      - 
        x: 1057.16564941
        y: 399.105773926
        z: 0.0
      - 
        x: 1037.12866211
        y: 480.771514893
        z: 0.0
  - 
    header: 
      seq: 0
      stamp: 
        secs: 1627497829
        nsecs: 475316627
      frame_id: "/base_link"
    id: 2
    reprojection_error: 1.83113455772
    pose: 
      header: 
        seq: 0
        stamp: 
          secs: 1627497829
          nsecs: 475316627
        frame_id: "/base_link"
      pose: 
        position: 
          x: 2.24210354016
          y: -0.576551650832
          z: 0.488099927844
        orientation: 
          x: 0.041717233887
          y: -0.815427179558
          z: -0.0584204504657
          w: 0.574391189176
    corners: 
      - 
        x: 979.374084473
        y: 374.09375
        z: 0.0
      - 
        x: 997.088500977
        y: 285.412597656
        z: 0.0
      - 
        x: 1079.66540527
        y: 298.822418213
        z: 0.0
      - 
        x: 1060.09619141
        y: 385.706634521
        z: 0.0
  - 
    header: 
      seq: 0
      stamp: 
        secs: 1627497829
        nsecs: 475316627
      frame_id: "/base_link"
    id: 3
    reprojection_error: 0.399694085121
    pose: 
      header: 
        seq: 0
        stamp: 
          secs: 1627497829
          nsecs: 475316627
        frame_id: "/base_link"
      pose: 
        position: 
          x: 2.39518104593
          y: -0.731372197632
          z: 0.104783805998
        orientation: 
          x: 0.0770775409928
          y: -0.83538276244
          z: -0.01035826009
          w: 0.544139136013
    corners: 
      - 
        x: 1034.15881348
        y: 571.201599121
        z: 0.0
      - 
        x: 1053.80969238
        y: 495.588134766
        z: 0.0
      - 
        x: 1127.71191406
        y: 504.699157715
        z: 0.0
      - 
        x: 1106.22424316
        y: 579.41619873
        z: 0.0
  - 
    header: 
      seq: 0
      stamp: 
        secs: 1627497829
        nsecs: 475316627
      frame_id: "/base_link"
    id: 8
    reprojection_error: 1.68140459061
    pose: 
      header: 
        seq: 0
        stamp: 
          secs: 1627497829
          nsecs: 475316627
        frame_id: "/base_link"
      pose: 
        position: 
          x: 2.29053345477
          y: -0.798534099477
          z: 0.467904094008
        orientation: 
          x: 0.0761121899232
          y: -0.806871365981
          z: -0.0205526214886
          w: 0.585442672732
    corners: 
      - 
        x: 1080.46398926
        y: 389.194274902
        z: 0.0
      - 
        x: 1100.21228027
        y: 302.38067627
        z: 0.0
      - 
        x: 1177.90625
        y: 315.771728516
        z: 0.0
      - 
        x: 1156.06982422
        y: 400.304718018
        z: 0.0
  - 
    header: 
      seq: 0
      stamp: 
        secs: 1627497829
        nsecs: 475316627
      frame_id: "/base_link"
    id: 9
    reprojection_error: 1.29961442947
    pose: 
      header: 
        seq: 0
        stamp: 
          secs: 1627497829
          nsecs: 475316627
        frame_id: "/base_link"
      pose: 
        position: 
          x: 2.34676208136
          y: -0.767169301761
          z: 0.28527551311
        orientation: 
          x: 0.0720197418622
          y: -0.825836455774
          z: -0.0186778359866
          w: 0.55897982391
    corners: 
      - 
        x: 1056.86047363
        y: 483.152557373
        z: 0.0
      - 
        x: 1076.91333008
        y: 402.071746826
        z: 0.0
      - 
        x: 1152.72680664
        y: 413.226196289
        z: 0.0
      - 
        x: 1131.07006836
        y: 492.589355469
        z: 0.0
---
header: 
  seq: 5
  stamp: 
    secs: 1627497829
    nsecs: 683721653
  frame_id: "/base_link"
markers: 
  - 
    header: 
      seq: 0
      stamp: 
        secs: 1627497829
        nsecs: 683721653
      frame_id: "/base_link"
    id: 0
    reprojection_error: 0.477989286184
    pose: 
      header: 
        seq: 0
        stamp: 
          secs: 1627497829
          nsecs: 683721653
        frame_id: "/base_link"
      pose: 
        position: 
          x: 2.32443066876
          y: -0.507665780307
          z: 0.123745307711
        orientation: 
          x: 0.0656126280389
          y: -0.846624104433
          z: -0.0200716975448
          w: 0.527749690472
    corners: 
      - 
        x: 938.936035156
        y: 560.691833496
        z: 0.0
      - 
        x: 956.230041504
        y: 483.40020752
        z: 0.0
      - 
        x: 1034.28625488
        y: 493.064880371
        z: 0.0
      - 
        x: 1014.70477295
        y: 569.204467773
        z: 0.0
  - 
    header: 
      seq: 0
      stamp: 
        secs: 1627497829
        nsecs: 683721653
      frame_id: "/base_link"
    id: 1
    reprojection_error: 1.07103574276
    pose: 
      header: 
        seq: 0
        stamp: 
          secs: 1627497829
          nsecs: 683721653
        frame_id: "/base_link"
      pose: 
        position: 
          x: 2.27487002731
          y: -0.540818032741
          z: 0.302098997024
        orientation: 
          x: 0.0566021997729
          y: -0.836670521162
          z: -0.03367327405
          w: 0.543732232459
    corners: 
      - 
        x: 959.018493652
        y: 470.648864746
        z: 0.0
      - 
        x: 976.75793457
        y: 387.355255127
        z: 0.0
      - 
        x: 1057.1361084
        y: 398.970581055
        z: 0.0
      - 
        x: 1037.1932373
        y: 480.694335938
        z: 0.0
  - 
    header: 
      seq: 0
      stamp: 
        secs: 1627497829
        nsecs: 683721653
      frame_id: "/base_link"
    id: 2
    reprojection_error: 1.73079967499
    pose: 
      header: 
        seq: 0
        stamp: 
          secs: 1627497829
          nsecs: 683721653
        frame_id: "/base_link"
      pose: 
        position: 
          x: 2.24155606844
          y: -0.57640304324
          z: 0.487998451394
        orientation: 
          x: 0.043586995474
          y: -0.814690675401
          z: -0.057029146467
          w: 0.575436315933
    corners: 
      - 
        x: 979.377868652
        y: 374.041778564
        z: 0.0
      - 
        x: 997.16015625
        y: 285.350769043
        z: 0.0
      - 
        x: 1079.65014648
        y: 298.808929443
        z: 0.0
      - 
        x: 1060.00769043
        y: 385.7684021
        z: 0.0
  - 
    header: 
      seq: 0
      stamp: 
        secs: 1627497829
        nsecs: 683721653
      frame_id: "/base_link"
    id: 3
    reprojection_error: 0.484316259623
    pose: 
      header: 
        seq: 0
        stamp: 
          secs: 1627497829
          nsecs: 683721653
        frame_id: "/base_link"
      pose: 
        position: 
          x: 2.39398048569
          y: -0.730976178605
          z: 0.104759387869
        orientation: 
          x: 0.0771961333964
          y: -0.836037956187
          z: -0.0108494192348
          w: 0.543105498873
    corners: 
      - 
        x: 1034.04614258
        y: 571.115905762
        z: 0.0
      - 
        x: 1053.8671875
        y: 495.566192627
        z: 0.0
      - 
        x: 1127.77233887
        y: 504.722747803
        z: 0.0
      - 
        x: 1106.19396973
        y: 579.420166016
        z: 0.0
  - 
    header: 
      seq: 0
      stamp: 
        secs: 1627497829
        nsecs: 683721653
      frame_id: "/base_link"
    id: 8
    reprojection_error: 1.65252828598
    pose: 
      header: 
        seq: 0
        stamp: 
          secs: 1627497829
          nsecs: 683721653
        frame_id: "/base_link"
      pose: 
        position: 
          x: 2.29048921689
          y: -0.798575470763
          z: 0.467872935111
        orientation: 
          x: 0.0758809244097
          y: -0.807058653132
          z: -0.0209848269617
          w: 0.585199156486
    corners: 
      - 
        x: 1080.42126465
        y: 389.217010498
        z: 0.0
      - 
        x: 1100.30102539
        y: 302.384460449
        z: 0.0
      - 
        x: 1177.93835449
        y: 315.816223145
        z: 0.0
      - 
        x: 1156.15478516
        y: 400.309234619
        z: 0.0
  - 
    header: 
      seq: 0
      stamp: 
        secs: 1627497829
        nsecs: 683721653
      frame_id: "/base_link"
    id: 9
    reprojection_error: 1.17220914364
    pose: 
      header: 
        seq: 0
        stamp: 
          secs: 1627497829
          nsecs: 683721653
        frame_id: "/base_link"
      pose: 
        position: 
          x: 2.34770687541
          y: -0.767521069028
          z: 0.285451011143
        orientation: 
          x: 0.0712984423442
          y: -0.826142812565
          z: -0.0191361039394
          w: 0.558603969635
    corners: 
      - 
        x: 1056.83618164
        y: 483.063140869
        z: 0.0
      - 
        x: 1076.92004395
        y: 402.16229248
        z: 0.0
      - 
        x: 1152.70666504
        y: 413.145172119
        z: 0.0
      - 
        x: 1131.12133789
        y: 492.597625732
        z: 0.0
---
header: 
  seq: 6
  stamp: 
    secs: 1627497829
    nsecs: 884647428
  frame_id: "/base_link"
markers: 
  - 
    header: 
      seq: 0
      stamp: 
        secs: 1627497829
        nsecs: 884647428
      frame_id: "/base_link"
    id: 0
    reprojection_error: 0.711675465107
    pose: 
      header: 
        seq: 0
        stamp: 
          secs: 1627497829
          nsecs: 884647428
        frame_id: "/base_link"
      pose: 
        position: 
          x: 2.32652582241
          y: -0.5081395188
          z: 0.123762300538
        orientation: 
          x: 0.065842173482
          y: -0.845923382909
          z: -0.0201758133442
          w: 0.528839649605
    corners: 
      - 
        x: 939.053955078
        y: 560.797973633
        z: 0.0
      - 
        x: 956.195373535
        y: 483.391601562
        z: 0.0
      - 
        x: 1034.28161621
        y: 493.205718994
        z: 0.0
      - 
        x: 1014.61639404
        y: 569.246154785
        z: 0.0
  - 
    header: 
      seq: 0
      stamp: 
        secs: 1627497829
        nsecs: 884647428
      frame_id: "/base_link"
    id: 1
    reprojection_error: 1.13219106197
    pose: 
      header: 
        seq: 0
        stamp: 
          secs: 1627497829
          nsecs: 884647428
        frame_id: "/base_link"
      pose: 
        position: 
          x: 2.27636352176
          y: -0.541186878653
          z: 0.302253922092
        orientation: 
          x: 0.0564828375897
          y: -0.83669326414
          z: -0.0341805499686
          w: 0.543677993673
    corners: 
      - 
        x: 959.046386719
        y: 470.660491943
        z: 0.0
      - 
        x: 976.80065918
        y: 387.381164551
        z: 0.0
      - 
        x: 1057.13903809
        y: 399.094726562
        z: 0.0
      - 
        x: 1037.17797852
        y: 480.697021484
        z: 0.0
  - 
    header: 
      seq: 0
      stamp: 
        secs: 1627497829
        nsecs: 884647428
      frame_id: "/base_link"
    id: 2
    reprojection_error: 1.84582614899
    pose: 
      header: 
        seq: 0
        stamp: 
          secs: 1627497829
          nsecs: 884647428
        frame_id: "/base_link"
      pose: 
        position: 
          x: 2.24202687702
          y: -0.576596277654
          z: 0.488119542988
        orientation: 
          x: 0.0430926617153
          y: -0.815838929413
          z: -0.0569113725621
          w: 0.573856218432
    corners: 
      - 
        x: 979.400146484
        y: 374.08694458
        z: 0.0
      - 
        x: 997.22277832
        y: 285.3699646
        z: 0.0
      - 
        x: 1079.68103027
        y: 298.833648682
        z: 0.0
      - 
        x: 1060.0871582
        y: 385.651184082
        z: 0.0
  - 
    header: 
      seq: 0
      stamp: 
        secs: 1627497829
        nsecs: 884647428
      frame_id: "/base_link"
    id: 3
    reprojection_error: 0.574640214443
    pose: 
      header: 
        seq: 0
        stamp: 
          secs: 1627497829
          nsecs: 884647428
        frame_id: "/base_link"
      pose: 
        position: 
          x: 2.39721344933
          y: -0.731986969445
          z: 0.104929838602
        orientation: 
          x: 0.0764255982866
          y: -0.835998449263
          z: -0.0118851068033
          w: 0.54325359179
    corners: 
      - 
        x: 1034.03686523
        y: 571.016052246
        z: 0.0
      - 
        x: 1053.87817383
        y: 495.587280273
        z: 0.0
      - 
        x: 1127.69445801
        y: 504.778625488
        z: 0.0
      - 
        x: 1106.22216797
        y: 579.387207031
        z: 0.0
  - 
    header: 
      seq: 0
      stamp: 
        secs: 1627497829
        nsecs: 884647428
      frame_id: "/base_link"
    id: 8
    reprojection_error: 1.63226592541
    pose: 
      header: 
        seq: 0
        stamp: 
          secs: 1627497829
          nsecs: 884647428
        frame_id: "/base_link"
      pose: 
        position: 
          x: 2.29030016919
          y: -0.798494745978
          z: 0.467825534534
        orientation: 
          x: 0.0758269718148
          y: -0.807422504177
          z: -0.0210648293739
          w: 0.584701157051
    corners: 
      - 
        x: 1080.40454102
        y: 389.202789307
        z: 0.0
      - 
        x: 1100.29394531
        y: 302.393737793
        z: 0.0
      - 
        x: 1177.96801758
        y: 315.804901123
        z: 0.0
      - 
        x: 1156.11694336
        y: 400.318695068
        z: 0.0
  - 
    header: 
      seq: 0
      stamp: 
        secs: 1627497829
        nsecs: 884647428
      frame_id: "/base_link"
    id: 9
    reprojection_error: 1.22237563133
    pose: 
      header: 
        seq: 0
        stamp: 
          secs: 1627497829
          nsecs: 884647428
        frame_id: "/base_link"
      pose: 
        position: 
          x: 2.34837120398
          y: -0.76770363119
          z: 0.285409158862
        orientation: 
          x: 0.0706181240026
          y: -0.826868090662
          z: -0.0193788577192
          w: 0.557608017411
    corners: 
      - 
        x: 1056.84790039
        y: 483.121826172
        z: 0.0
      - 
        x: 1076.83215332
        y: 402.257354736
        z: 0.0
      - 
        x: 1152.73022461
        y: 413.22277832
        z: 0.0
      - 
        x: 1131.06628418
        y: 492.574707031
        z: 0.0
---
header: 
  seq: 7
  stamp: 
    secs: 1627497830
    nsecs:  18624429
  frame_id: "/base_link"
markers: 
  - 
    header: 
      seq: 0
      stamp: 
        secs: 1627497830
        nsecs:  18624429
      frame_id: "/base_link"
    id: 0
    reprojection_error: 0.56610840559
    pose: 
      header: 
        seq: 0
        stamp: 
          secs: 1627497830
          nsecs:  18624429
        frame_id: "/base_link"
      pose: 
        position: 
          x: 2.32552512749
          y: -0.507919616203
          z: 0.123727525593
        orientation: 
          x: 0.0647980947314
          y: -0.846496109409
          z: -0.0206046773055
          w: 0.528035028145
    corners: 
      - 
        x: 939.026489258
        y: 560.747924805
        z: 0.0
      - 
        x: 956.126647949
        y: 483.439727783
        z: 0.0
      - 
        x: 1034.29406738
        y: 493.128143311
        z: 0.0
      - 
        x: 1014.69165039
        y: 569.229492188
        z: 0.0
  - 
    header: 
      seq: 0
      stamp: 
        secs: 1627497830
        nsecs:  18624429
      frame_id: "/base_link"
    id: 1
    reprojection_error: 1.15815877914
    pose: 
      header: 
        seq: 0
        stamp: 
          secs: 1627497830
          nsecs:  18624429
        frame_id: "/base_link"
      pose: 
        position: 
          x: 2.27536869886
          y: -0.541025555582
          z: 0.302112470419
        orientation: 
          x: 0.0562444118454
          y: -0.83737646522
          z: -0.0343049383077
          w: 0.542642048536
    corners: 
      - 
        x: 959.051818848
        y: 470.654541016
        z: 0.0
      - 
        x: 976.833618164
        y: 387.377166748
        z: 0.0
      - 
        x: 1057.2265625
        y: 399.099700928
        z: 0.0
      - 
        x: 1037.22521973
        y: 480.666015625
        z: 0.0
  - 
    header: 
      seq: 0
      stamp: 
        secs: 1627497830
        nsecs:  18624429
      frame_id: "/base_link"
    id: 2
    reprojection_error: 1.8534257412
    pose: 
      header: 
        seq: 0
        stamp: 
          secs: 1627497830
          nsecs:  18624429
        frame_id: "/base_link"
      pose: 
        position: 
          x: 2.24150102913
          y: -0.576492742062
          z: 0.488022327236
        orientation: 
          x: 0.0430792722236
          y: -0.81523205772
          z: -0.0569431229795
          w: 0.57471588556
    corners: 
      - 
        x: 979.40020752
        y: 374.071411133
        z: 0.0
      - 
        x: 997.222595215
        y: 285.338195801
        z: 0.0
      - 
        x: 1079.67419434
        y: 298.776977539
        z: 0.0
      - 
        x: 1060.14489746
        y: 385.663238525
        z: 0.0
  - 
    header: 
      seq: 0
      stamp: 
        secs: 1627497830
        nsecs:  18624429
      frame_id: "/base_link"
    id: 3
    reprojection_error: 0.510741949081
    pose: 
      header: 
        seq: 0
        stamp: 
          secs: 1627497830
          nsecs:  18624429
        frame_id: "/base_link"
      pose: 
        position: 
          x: 2.39542122843
          y: -0.73147046759
          z: 0.104811048284
        orientation: 
          x: 0.0768108240423
          y: -0.835921834981
          z: -0.01090011367
          w: 0.543337805269
    corners: 
      - 
        x: 1034.09631348
        y: 571.122436523
        z: 0.0
      - 
        x: 1053.85461426
        y: 495.606781006
        z: 0.0
      - 
        x: 1127.73474121
        y: 504.725372314
        z: 0.0
      - 
        x: 1106.23083496
        y: 579.399230957
        z: 0.0
  - 
    header: 
      seq: 0
      stamp: 
        secs: 1627497830
        nsecs:  18624429
      frame_id: "/base_link"
    id: 8
    reprojection_error: 1.65393221378
    pose: 
      header: 
        seq: 0
        stamp: 
          secs: 1627497830
          nsecs:  18624429
        frame_id: "/base_link"
      pose: 
        position: 
          x: 2.29178216347
          y: -0.798976838355
          z: 0.468113692208
        orientation: 
          x: 0.0747003409799
          y: -0.807965684128
          z: -0.0221983387763
          w: 0.584053547276
    corners: 
      - 
        x: 1080.38720703
        y: 389.178466797
        z: 0.0
      - 
        x: 1100.19067383
        y: 302.475311279
        z: 0.0
      - 
        x: 1178.00305176
        y: 315.824371338
        z: 0.0
      - 
        x: 1156.06555176
        y: 400.311706543
        z: 0.0
  - 
    header: 
      seq: 0
      stamp: 
        secs: 1627497830
        nsecs:  18624429
      frame_id: "/base_link"
    id: 9
    reprojection_error: 1.15777432919
    pose: 
      header: 
        seq: 0
        stamp: 
          secs: 1627497830
          nsecs:  18624429
        frame_id: "/base_link"
      pose: 
        position: 
          x: 2.34830934238
          y: -0.767705535143
          z: 0.285440598291
        orientation: 
          x: 0.0704687780637
          y: -0.826649468589
          z: -0.0194756477147
          w: 0.557947584049
    corners: 
      - 
        x: 1056.86315918
        y: 483.117248535
        z: 0.0
      - 
        x: 1076.84790039
        y: 402.23727417
        z: 0.0
      - 
        x: 1152.73303223
        y: 413.193511963
        z: 0.0
      - 
        x: 1131.1262207
        y: 492.571990967
        z: 0.0
---
header: 
  seq: 8
  stamp: 
    secs: 1627497830
    nsecs: 222053391
  frame_id: "/base_link"
markers: 
  - 
    header: 
      seq: 0
      stamp: 
        secs: 1627497830
        nsecs: 222053391
      frame_id: "/base_link"
    id: 0
    reprojection_error: 0.574215114117
    pose: 
      header: 
        seq: 0
        stamp: 
          secs: 1627497830
          nsecs: 222053391
        frame_id: "/base_link"
      pose: 
        position: 
          x: 2.32592584859
          y: -0.508043279238
          z: 0.12376766263
        orientation: 
          x: 0.0659068673844
          y: -0.845869145721
          z: -0.0197177683614
          w: 0.528935613057
    corners: 
      - 
        x: 939.043762207
        y: 560.786743164
        z: 0.0
      - 
        x: 956.218017578
        y: 483.40826416
        z: 0.0
      - 
        x: 1034.26245117
        y: 493.105865479
        z: 0.0
      - 
        x: 1014.67718506
        y: 569.239440918
        z: 0.0
  - 
    header: 
      seq: 0
      stamp: 
        secs: 1627497830
        nsecs: 222053391
      frame_id: "/base_link"
    id: 1
    reprojection_error: 1.00697588921
    pose: 
      header: 
        seq: 0
        stamp: 
          secs: 1627497830
          nsecs: 222053391
        frame_id: "/base_link"
      pose: 
        position: 
          x: 2.27483358636
          y: -0.54077240452
          z: 0.302023115272
        orientation: 
          x: 0.0564870032833
          y: -0.837026123696
          z: -0.0342888219552
          w: 0.543158138481
    corners: 
      - 
        x: 958.959472656
        y: 470.610778809
        z: 0.0
      - 
        x: 976.770507812
        y: 387.39553833
        z: 0.0
      - 
        x: 1057.15625
        y: 399.032104492
        z: 0.0
      - 
        x: 1037.14916992
        y: 480.760009766
        z: 0.0
  - 
    header: 
      seq: 0
      stamp: 
        secs: 1627497830
        nsecs: 222053391
      frame_id: "/base_link"
    id: 2
    reprojection_error: 1.93777453899
    pose: 
      header: 
        seq: 0
        stamp: 
          secs: 1627497830
          nsecs: 222053391
        frame_id: "/base_link"
      pose: 
        position: 
          x: 2.24252654033
          y: -0.576731502071
          z: 0.488205422524
        orientation: 
          x: 0.042419084249
          y: -0.81641941163
          z: -0.0583173970325
          w: 0.572938955569
    corners: 
      - 
        x: 979.368652344
        y: 374.033050537
        z: 0.0
      - 
        x: 997.20690918
        y: 285.360809326
        z: 0.0
      - 
        x: 1079.74560547
        y: 298.921112061
        z: 0.0
      - 
        x: 1060.0222168
        y: 385.674285889
        z: 0.0
  - 
    header: 
      seq: 0
      stamp: 
        secs: 1627497830
        nsecs: 222053391
      frame_id: "/base_link"
    id: 3
    reprojection_error: 0.49815300107
    pose: 
      header: 
        seq: 0
        stamp: 
          secs: 1627497830
          nsecs: 222053391
        frame_id: "/base_link"
      pose: 
        position: 
          x: 2.39597703235
          y: -0.731644711538
          z: 0.10484385119
        orientation: 
          x: 0.0773264200152
          y: -0.835455393276
          z: -0.010421317574
          w: 0.543991090694
    corners: 
      - 
        x: 1034.12915039
        y: 571.144836426
        z: 0.0
      - 
        x: 1053.88391113
        y: 495.594268799
        z: 0.0
      - 
        x: 1127.68505859
        y: 504.70980835
        z: 0.0
      - 
        x: 1106.22192383
        y: 579.404663086
        z: 0.0
  - 
    header: 
      seq: 0
      stamp: 
        secs: 1627497830
        nsecs: 222053391
      frame_id: "/base_link"
    id: 8
    reprojection_error: 1.62719964981
    pose: 
      header: 
        seq: 0
        stamp: 
          secs: 1627497830
          nsecs: 222053391
        frame_id: "/base_link"
      pose: 
        position: 
          x: 2.29040487923
          y: -0.798478788953
          z: 0.467852840018
        orientation: 
          x: 0.0754855268705
          y: -0.80766422042
          z: -0.020949429667
          w: 0.584415574469
    corners: 
      - 
        x: 1080.38171387
        y: 389.211761475
        z: 0.0
      - 
        x: 1100.23034668
        y: 302.432800293
        z: 0.0
      - 
        x: 1177.92895508
        y: 315.755523682
        z: 0.0
      - 
        x: 1156.10046387
        y: 400.296661377
        z: 0.0
  - 
    header: 
      seq: 0
      stamp: 
        secs: 1627497830
        nsecs: 222053391
      frame_id: "/base_link"
    id: 9
    reprojection_error: 1.19790804386
    pose: 
      header: 
        seq: 0
        stamp: 
          secs: 1627497830
          nsecs: 222053391
        frame_id: "/base_link"
      pose: 
        position: 
          x: 2.34796037604
          y: -0.767629352371
          z: 0.285504505809
        orientation: 
          x: 0.0704554159613
          y: -0.826340422973
          z: -0.0196550156819
          w: 0.558400591047
    corners: 
      - 
        x: 1056.86462402
        y: 483.07699585
        z: 0.0
      - 
        x: 1076.88439941
        y: 402.133392334
        z: 0.0
      - 
        x: 1152.74475098
        y: 413.147399902
        z: 0.0
      - 
        x: 1131.19677734
        y: 492.525817871
        z: 0.0
---
header: 
  seq: 9
  stamp: 
    secs: 1627497830
    nsecs: 355685389
  frame_id: "/base_link"
markers: 
  - 
    header: 
      seq: 0
      stamp: 
        secs: 1627497830
        nsecs: 355685389
      frame_id: "/base_link"
    id: 0
    reprojection_error: 0.599527716637
    pose: 
      header: 
        seq: 0
        stamp: 
          secs: 1627497830
          nsecs: 355685389
        frame_id: "/base_link"
      pose: 
        position: 
          x: 2.3241584972
          y: -0.507647960348
          z: 0.12370701919
        orientation: 
          x: 0.0654760738095
          y: -0.84670970611
          z: -0.0206906355996
          w: 0.527605396993
    corners: 
      - 
        x: 938.924682617
        y: 560.682250977
        z: 0.0
      - 
        x: 956.226257324
        y: 483.385223389
        z: 0.0
      - 
        x: 1034.3416748
        y: 493.138427734
        z: 0.0
      - 
        x: 1014.6852417
        y: 569.253173828
        z: 0.0
  - 
    header: 
      seq: 0
      stamp: 
        secs: 1627497830
        nsecs: 355685389
      frame_id: "/base_link"
    id: 1
    reprojection_error: 1.2284758091
    pose: 
      header: 
        seq: 0
        stamp: 
          secs: 1627497830
          nsecs: 355685389
        frame_id: "/base_link"
      pose: 
        position: 
          x: 2.27537850559
          y: -0.540932585602
          z: 0.302113441932
        orientation: 
          x: 0.0554850946881
          y: -0.837424908499
          z: -0.0353752786003
          w: 0.542576737943
    corners: 
      - 
        x: 958.963439941
        y: 470.619995117
        z: 0.0
      - 
        x: 976.752990723
        y: 387.357818604
        z: 0.0
      - 
        x: 1057.18884277
        y: 399.130340576
        z: 0.0
      - 
        x: 1037.20507812
        y: 480.690338135
        z: 0.0
  - 
    header: 
      seq: 0
      stamp: 
        secs: 1627497830
        nsecs: 355685389
      frame_id: "/base_link"
    id: 2
    reprojection_error: 1.99405694008
    pose: 
      header: 
        seq: 0
        stamp: 
          secs: 1627497830
          nsecs: 355685389
        frame_id: "/base_link"
      pose: 
        position: 
          x: 2.24294839299
          y: -0.576799922825
          z: 0.488262145064
        orientation: 
          x: 0.040623833378
          y: -0.81588994007
          z: -0.0596722440391
          w: 0.573683303876
    corners: 
      - 
        x: 979.364135742
        y: 374.120544434
        z: 0.0
      - 
        x: 997.094116211
        y: 285.42401123
        z: 0.0
      - 
        x: 1079.69458008
        y: 298.917755127
        z: 0.0
      - 
        x: 1060.14916992
        y: 385.658355713
        z: 0.0
  - 
    header: 
      seq: 0
      stamp: 
        secs: 1627497830
        nsecs: 355685389
      frame_id: "/base_link"
    id: 3
    reprojection_error: 0.774710774422
    pose: 
      header: 
        seq: 0
        stamp: 
          secs: 1627497830
          nsecs: 355685389
        frame_id: "/base_link"
      pose: 
        position: 
          x: 2.39449767596
          y: -0.731088321658
          z: 0.104801085479
        orientation: 
          x: 0.077121871531
          y: -0.83589595767
          z: -0.0108242974313
          w: 0.543335071082
    corners: 
      - 
        x: 1033.96533203
        y: 571.059997559
        z: 0.0
      - 
        x: 1053.87768555
        y: 495.594207764
        z: 0.0
      - 
        x: 1127.66088867
        y: 504.655700684
        z: 0.0
      - 
        x: 1106.22253418
        y: 579.431396484
        z: 0.0
  - 
    header: 
      seq: 0
      stamp: 
        secs: 1627497830
        nsecs: 355685389
      frame_id: "/base_link"
    id: 8
    reprojection_error: 1.55885434151
    pose: 
      header: 
        seq: 0
        stamp: 
          secs: 1627497830
          nsecs: 355685389
        frame_id: "/base_link"
      pose: 
        position: 
          x: 2.29077972004
          y: -0.798635975674
          z: 0.467947407903
        orientation: 
          x: 0.075918429044
          y: -0.80770352009
          z: -0.0204544141175
          w: 0.584322712813
    corners: 
      - 
        x: 1080.39550781
        y: 389.190795898
        z: 0.0
      - 
        x: 1100.296875
        y: 302.4425354
        z: 0.0
      - 
        x: 1177.89550781
        y: 315.743865967
        z: 0.0
      - 
        x: 1156.09558105
        y: 400.282989502
        z: 0.0
  - 
    header: 
      seq: 0
      stamp: 
        secs: 1627497830
        nsecs: 355685389
      frame_id: "/base_link"
    id: 9
    reprojection_error: 1.3172494173
    pose: 
      header: 
        seq: 0
        stamp: 
          secs: 1627497830
          nsecs: 355685389
        frame_id: "/base_link"
      pose: 
        position: 
          x: 2.34652867496
          y: -0.767145735296
          z: 0.285272036658
        orientation: 
          x: 0.0716885136699
          y: -0.825969480148
          z: -0.0187613301744
          w: 0.558823037609
    corners: 
      - 
        x: 1056.85070801
        y: 483.148162842
        z: 0.0
      - 
        x: 1076.94750977
        y: 402.075561523
        z: 0.0
      - 
        x: 1152.73608398
        y: 413.190368652
        z: 0.0
      - 
        x: 1131.15551758
        y: 492.565979004
        z: 0.0
---
header: 
  seq: 10
  stamp: 
    secs: 1627497830
    nsecs: 562831672
  frame_id: "/base_link"
markers: 
  - 
    header: 
      seq: 0
      stamp: 
        secs: 1627497830
        nsecs: 562831672
      frame_id: "/base_link"
    id: 0
    reprojection_error: 0.576224923134
    pose: 
      header: 
        seq: 0
        stamp: 
          secs: 1627497830
          nsecs: 562831672
        frame_id: "/base_link"
      pose: 
        position: 
          x: 2.32456838264
          y: -0.507685432129
          z: 0.123713769034
        orientation: 
          x: 0.0654815281769
          y: -0.846396494912
          z: -0.0200857555712
          w: 0.528130386639
    corners: 
      - 
        x: 938.965515137
        y: 560.750183105
        z: 0.0
      - 
        x: 956.167724609
        y: 483.399078369
        z: 0.0
      - 
        x: 1034.27941895
        y: 493.092468262
        z: 0.0
      - 
        x: 1014.68041992
        y: 569.224365234
        z: 0.0
  - 
    header: 
      seq: 0
      stamp: 
        secs: 1627497830
        nsecs: 562831672
      frame_id: "/base_link"
    id: 1
    reprojection_error: 1.08957362175
    pose: 
      header: 
        seq: 0
        stamp: 
          secs: 1627497830
          nsecs: 562831672
        frame_id: "/base_link"
      pose: 
        position: 
          x: 2.27566553449
          y: -0.541037157697
          z: 0.302146656398
        orientation: 
          x: 0.0562281225245
          y: -0.836808382926
          z: -0.0343759769372
          w: 0.543514876256
    corners: 
      - 
        x: 959.061157227
        y: 470.669342041
        z: 0.0
      - 
        x: 976.791503906
        y: 387.369232178
        z: 0.0
      - 
        x: 1057.1875
        y: 399.082214355
        z: 0.0
      - 
        x: 1037.20922852
        y: 480.70703125
        z: 0.0
  - 
    header: 
      seq: 0
      stamp: 
        secs: 1627497830
        nsecs: 562831672
      frame_id: "/base_link"
    id: 2
    reprojection_error: 1.80739378929
    pose: 
      header: 
        seq: 0
        stamp: 
          secs: 1627497830
          nsecs: 562831672
        frame_id: "/base_link"
      pose: 
        position: 
          x: 2.24088306133
          y: -0.576279208495
          z: 0.487854587632
        orientation: 
          x: 0.0433706204415
          y: -0.815073153555
          z: -0.0568329453922
          w: 0.574930221814
    corners: 
      - 
        x: 979.354370117
        y: 374.085235596
        z: 0.0
      - 
        x: 997.213989258
        y: 285.345275879
        z: 0.0
      - 
        x: 1079.66455078
        y: 298.785766602
        z: 0.0
      - 
        x: 1060.11547852
        y: 385.721954346
        z: 0.0
  - 
    header: 
      seq: 0
      stamp: 
        secs: 1627497830
        nsecs: 562831672
      frame_id: "/base_link"
    id: 3
    reprojection_error: 0.607797801495
    pose: 
      header: 
        seq: 0
        stamp: 
          secs: 1627497830
          nsecs: 562831672
        frame_id: "/base_link"
      pose: 
        position: 
          x: 2.39635891906
          y: -0.731733849197
          z: 0.104922045443
        orientation: 
          x: 0.0762325196681
          y: -0.835908304151
          z: -0.0117581241766
          w: 0.543422171532
    corners: 
      - 
        x: 1034.04174805
        y: 571.022155762
        z: 0.0
      - 
        x: 1053.85144043
        y: 495.574462891
        z: 0.0
      - 
        x: 1127.70141602
        y: 504.709381104
        z: 0.0
      - 
        x: 1106.26672363
        y: 579.389465332
        z: 0.0
  - 
    header: 
      seq: 0
      stamp: 
        secs: 1627497830
        nsecs: 562831672
      frame_id: "/base_link"
    id: 8
    reprojection_error: 1.64215731621
    pose: 
      header: 
        seq: 0
        stamp: 
          secs: 1627497830
          nsecs: 562831672
        frame_id: "/base_link"
      pose: 
        position: 
          x: 2.29073942527
          y: -0.798621982672
          z: 0.467854384736
        orientation: 
          x: 0.0753507774855
          y: -0.808095706299
          z: -0.0214985399938
          w: 0.583816240415
    corners: 
      - 
        x: 1080.41577148
        y: 389.21282959
        z: 0.0
      - 
        x: 1100.23583984
        y: 302.460418701
        z: 0.0
      - 
        x: 1178.03735352
        y: 315.830963135
        z: 0.0
      - 
        x: 1156.03942871
        y: 400.34173584
        z: 0.0
  - 
    header: 
      seq: 0
      stamp: 
        secs: 1627497830
        nsecs: 562831672
      frame_id: "/base_link"
    id: 9
    reprojection_error: 1.16157770157
    pose: 
      header: 
        seq: 0
        stamp: 
          secs: 1627497830
          nsecs: 562831672
        frame_id: "/base_link"
      pose: 
        position: 
          x: 2.34751376395
          y: -0.76742468949
          z: 0.285381409577
        orientation: 
          x: 0.0712837221139
          y: -0.826103567406
          z: -0.019271540349
          w: 0.558659229417
    corners: 
      - 
        x: 1056.86120605
        y: 483.086853027
        z: 0.0
      - 
        x: 1076.87316895
        y: 402.13470459
        z: 0.0
      - 
        x: 1152.73864746
        y: 413.181671143
        z: 0.0
      - 
        x: 1131.08093262
        y: 492.602600098
        z: 0.0
---
header: 
  seq: 11
  stamp: 
    secs: 1627497830
    nsecs: 697499955
  frame_id: "/base_link"
markers: 
  - 
    header: 
      seq: 0
      stamp: 
        secs: 1627497830
        nsecs: 697499955
      frame_id: "/base_link"
    id: 0
    reprojection_error: 0.614705562592
    pose: 
      header: 
        seq: 0
        stamp: 
          secs: 1627497830
          nsecs: 697499955
        frame_id: "/base_link"
      pose: 
        position: 
          x: 2.32366424931
          y: -0.507466652475
          z: 0.123629590142
        orientation: 
          x: 0.0648051949916
          y: -0.846765289147
          z: -0.0205532028381
          w: 0.527604395027
    corners: 
      - 
        x: 938.93939209
        y: 560.762756348
        z: 0.0
      - 
        x: 956.106018066
        y: 483.420043945
        z: 0.0
      - 
        x: 1034.3059082
        y: 493.111663818
        z: 0.0
      - 
        x: 1014.70965576
        y: 569.236633301
